{"pageProps":{"siteDescription":"Description of local dev version","siteTitle":"Local dev version","currentPage":"1","categories":[{"id":"all","title":"All","count":554},{"id":"with-pictures","title":"With pictures or videos","count":39},{"id":"office A","title":"office A","count":18},{"id":"miyata","title":"miyata","count":17},{"id":"office B","title":"office B","count":32},{"id":"recumbent","title":"recumbent","count":108},{"id":"tandem","title":"tandem","count":86},{"id":"wife","title":"wife","count":14},{"id":"son","title":"son","count":2},{"id":"grocery store","title":"grocery store","count":10},{"id":"just for fun","title":"just for fun","count":2},{"id":"Los Angeles","title":"Los Angeles","count":6},{"id":"school","title":"school","count":52},{"id":"horse camp","title":"horse camp","count":2},{"id":"yasha's heaven","title":"yasha's heaven","count":1},{"id":"seattle","title":"seattle","count":14},{"id":"walk","title":"walk","count":1},{"id":"office C","title":"office C","count":9},{"id":"with the kid","title":"with the kid","count":4},{"id":"ToTheEastCost","title":"ToTheEastCost","count":24}],"pages":20,"category":"with-pictures","index":[{"title":"Daily ride 2022-05-27 #554","gpx":["track.gpx"],"date":"2022-05-27","hash":["f0f3d69cdbda9b38e77428ad5b1815f945afed0701ae5448666dcf2b4bee5d9d"],"id":"20220527","objects":[{"type":"image","img":"20220527-photo0","lat":41.32777822209321,"lng":-88.91903079738302},{"type":"image","img":"20220527-photo1","lat":41.329891343226926,"lng":-88.91237256295439},{"type":"image","img":"20220527-photo10","lat":41.78221607168192,"lng":-88.30167896842264},{"type":"image","img":"20220527-photo11","lat":41.788645414863495,"lng":-88.29195654114073},{"type":"image","img":"20220527-photo12","lat":41.82050440654881,"lng":-88.19039731533032},{"type":"image","img":"20220527-photo13","lat":41.85915819382143,"lng":-88.0779638591586},{"type":"image","img":"20220527-photo14","lat":41.874931506893795,"lng":-87.97863385642107},{"type":"image","img":"20220527-photo2","lat":41.345622142866006,"lng":-88.84908814000657},{"type":"image","img":"20220527-photo3","lat":41.3459305169571,"lng":-88.84402790498915},{"type":"image","img":"20220527-photo4","lat":41.34581738313759,"lng":-88.82895658829143},{"type":"image","img":"20220527-photo5","lat":41.35061560853155,"lng":-88.80914055681681},{"type":"image","img":"20220527-photo6","lat":41.393283759173876,"lng":-88.75922255153239},{"type":"image","img":"20220527-photo7","lat":41.41522440111289,"lng":-88.73267068828727},{"type":"image","img":"20220527-photo8","lat":41.46483394944106,"lng":-88.66660884990057},{"type":"image","img":"20220527-photo9","lat":41.658264362547584,"lng":-88.4284590642825}],"time":50308000,"distance":157940.473196779,"uphill":605,"pointCount":468,"tags":[],"categories":["all","with-pictures"]},{"title":"Daily ride 2022-05-26 #553","description":"Day 24. Illinois. Motel. I crossed Mississippi and now I'm in Illinois","tags":["recumbent","ToTheEastCost"],"gpx":["track.gpx"],"date":"2022-05-26","hash":["ca8eefd1ff81b69ca3ca1a9a67b133fd60ff683265fa19e28f319790169a80c6"],"id":"20220526","objects":[{"type":"image","img":"20220526-photo0","lat":41.497265766516236,"lng":-90.5426873873975},{"type":"image","img":"20220526-photo1","lat":41.48954677242519,"lng":-90.46849873053927},{"type":"image","img":"20220526-photo10","lat":41.48360764858235,"lng":-90.40563341155779},{"type":"image","img":"20220526-photo11","lat":41.47300290049356,"lng":-90.24127787373561},{"type":"image","img":"20220526-photo12","lat":41.3586621943116,"lng":-89.73577990920049},{"type":"image","img":"20220526-photo13","lat":41.3586621943116,"lng":-89.73577990920049},{"type":"image","img":"20220526-photo14","lat":41.36329437057754,"lng":-89.2986641968299},{"type":"image","img":"20220526-photo15","lat":41.364190817268195,"lng":-89.24951132287838},{"type":"image","img":"20220526-photo16","lat":41.36421519101225,"lng":-89.24349701020466},{"type":"image","img":"20220526-photo2","lat":41.48951815222916,"lng":-90.46847294150643},{"type":"image","img":"20220526-photo3","lat":41.48951815222916,"lng":-90.46847294150643},{"type":"image","img":"20220526-photo4","lat":41.48951815222916,"lng":-90.46847294150643},{"type":"image","img":"20220526-photo5","lat":41.48951566143213,"lng":-90.46846991127065},{"type":"image","img":"20220526-photo6","lat":41.489746511207684,"lng":-90.435675954371},{"type":"image","img":"20220526-photo7","lat":41.489746511207684,"lng":-90.435675954371},{"type":"image","img":"20220526-photo8","lat":41.48364940629192,"lng":-90.4060322322755},{"type":"image","img":"20220526-photo9","lat":41.48364940629192,"lng":-90.4060322322755}],"time":37708000,"distance":136847.36098356234,"uphill":764,"pointCount":348,"categories":["all","recumbent","ToTheEastCost","with-pictures"]}]},"__N_SSG":true}