{"pageProps":{"categories":[{"id":"all","title":"All","count":521},{"id":"office A","title":"office A","count":149},{"id":"miyata","title":"miyata","count":17},{"id":"recumbent","title":"recumbent","count":224},{"id":"school","title":"school","count":93},{"id":"tandem","title":"tandem","count":137},{"id":"office B","title":"office B","count":86},{"id":"wife","title":"wife","count":14},{"id":"office C","title":"office C","count":22},{"id":"son","title":"son","count":2},{"id":"grocery store","title":"grocery store","count":10},{"id":"just for fun","title":"just for fun","count":2},{"id":"Los Angeles","title":"Los Angeles","count":6},{"id":"horse camp","title":"horse camp","count":2},{"id":"yasha's heaven","title":"yasha's heaven","count":1},{"id":"seattle","title":"seattle","count":14},{"id":"walk","title":"walk","count":1},{"id":"with the kid","title":"with the kid","count":4}],"tracks":[[{"lng":-122.03043351,"lat":37.30171931,"tm":1593444025000,"pathType":"line"}],[{"lng":-122.02707127,"lat":37.30111528,"tm":1593459967000,"pathType":"line"},{"lng":-122.02516968,"lat":37.30121817,"tm":1593460030000,"pathType":"line"},{"lng":-122.02483713,"lat":37.3009611,"tm":1593460097000,"pathType":"line"},{"lng":-122.02242353,"lat":37.30108479,"tm":1593460165000,"pathType":"line"},{"lng":-122.01994216,"lat":37.30113351,"tm":1593460225000,"pathType":"line"},{"lng":-122.01770461,"lat":37.30123915,"tm":1593460288000,"pathType":"line"},{"lng":-122.0153789,"lat":37.30122859,"tm":1593460351000,"pathType":"line"},{"lng":-122.01499123,"lat":37.30175479,"tm":1593460412000,"pathType":"line"},{"lng":-122.01497454,"lat":37.30379338,"tm":1593460474000,"pathType":"line"},{"lng":-122.0150336,"lat":37.3047698,"tm":1593460538000,"pathType":"line"},{"lng":-122.01489028,"lat":37.30616811,"tm":1593460695000,"pathType":"line"},{"lng":-122.01440038,"lat":37.30786743,"tm":1593460755000,"pathType":"line"},{"lng":-122.01340624,"lat":37.30911725,"tm":1593460816000,"pathType":"line"},{"lng":-122.01216423,"lat":37.30934469,"tm":1593460877000,"pathType":"line"},{"lng":-122.01226502,"lat":37.30932515,"tm":1593460938000,"pathType":"line"},{"lng":-122.01222882,"lat":37.30933011,"tm":1593461038000,"pathType":"line"},{"lng":-122.01216412,"lat":37.3093536,"tm":1593461099000,"pathType":"line"}],[{"lng":-122.01232163,"lat":37.30958016,"tm":1593463837000,"pathType":"line"}],[{"lng":-122.02991609,"lat":37.30189942,"tm":1593499533000,"pathType":"line"}]],"objects":[],"title":"Daily ride 2020-06-29","description":"","trackId":"20200629","distance":4.2,"time":"0:19","uphill":25},"__N_SSG":true}