{"pageProps":{"categories":[{"id":"all","title":"All","count":526},{"id":"with-pictures","title":"With pictures or videos","count":13},{"id":"office A","title":"office A","count":151},{"id":"miyata","title":"miyata","count":17},{"id":"recumbent","title":"recumbent","count":192},{"id":"school","title":"school","count":86},{"id":"tandem","title":"tandem","count":113},{"id":"office B","title":"office B","count":98},{"id":"wife","title":"wife","count":14},{"id":"son","title":"son","count":2},{"id":"grocery store","title":"grocery store","count":10},{"id":"just for fun","title":"just for fun","count":2},{"id":"Los Angeles","title":"Los Angeles","count":6},{"id":"horse camp","title":"horse camp","count":2},{"id":"yasha's heaven","title":"yasha's heaven","count":1},{"id":"seattle","title":"seattle","count":14},{"id":"walk","title":"walk","count":1},{"id":"office C","title":"office C","count":20},{"id":"with the kid","title":"with the kid","count":4}],"tracks":[[{"lng":-121.97794229708897,"lat":37.32668204241001,"tm":1651243739000,"pathType":"line"},{"lng":-121.97471936917904,"lat":37.327287766419424,"tm":1651243808000,"pathType":"line"},{"lng":-121.97320469591399,"lat":37.32996408036808,"tm":1651243876000,"pathType":"line"},{"lng":-121.96832042863201,"lat":37.32988009029074,"tm":1651243943000,"pathType":"line"},{"lng":-121.96603251962031,"lat":37.3270758561835,"tm":1651244012000,"pathType":"line"},{"lng":-121.96437839486178,"lat":37.324357181686935,"tm":1651244074000,"pathType":"line"},{"lng":-121.9643133366306,"lat":37.323436192516496,"tm":1651244135000,"pathType":"line"},{"lng":-121.96414403385957,"lat":37.31944296890913,"tm":1651244209000,"pathType":"line"},{"lng":-121.96413017001463,"lat":37.3156144057567,"tm":1651244279000,"pathType":"line"},{"lng":-121.96315931991789,"lat":37.31203016197332,"tm":1651244349000,"pathType":"line"},{"lng":-121.96378790167319,"lat":37.308933331077064,"tm":1651244412000,"pathType":"line"},{"lng":-121.9638666070972,"lat":37.308665235338594,"tm":1651244474000,"pathType":"line"},{"lng":-121.96105433104874,"lat":37.30875585838895,"tm":1651244543000,"pathType":"line"},{"lng":-121.96111342556863,"lat":37.30499402523902,"tm":1651244613000,"pathType":"line"},{"lng":-121.9592073860761,"lat":37.30436236182801,"tm":1651244715000,"pathType":"line"},{"lng":-121.95956643851629,"lat":37.304491443569844,"tm":1651244822000,"pathType":"line"},{"lng":-121.96310322364693,"lat":37.31045468634955,"tm":1651244922000,"pathType":"line"},{"lng":-121.96382094428458,"lat":37.315980341296644,"tm":1651245023000,"pathType":"line"},{"lng":-121.96383483658664,"lat":37.32105991718275,"tm":1651245131000,"pathType":"line"},{"lng":-121.96399966575385,"lat":37.3238935427386,"tm":1651245239000,"pathType":"line"},{"lng":-121.96748456710907,"lat":37.32968877537655,"tm":1651245350000,"pathType":"line"},{"lng":-121.96746158016474,"lat":37.32993685809226,"tm":1651245422000,"pathType":"line"},{"lng":-121.97448025078803,"lat":37.330145774070466,"tm":1651245639000,"pathType":"line"},{"lng":-121.97898004739764,"lat":37.32968785950886,"tm":1651245747000,"pathType":"line"},{"lng":-121.97955946786233,"lat":37.32669002473133,"tm":1651245819000,"pathType":"line"}]],"objects":[],"title":"Daily ride 2022-04-29","description":"","trackId":"20220429","distance":8.7,"time":"0:35","uphill":39},"__N_SSG":true}