{"pageProps":{"siteDescription":"Description of local dev version","siteTitle":"Local dev version","currentPage":"1","categories":[{"id":"all","title":"All","count":540},{"id":"with-pictures","title":"With pictures or videos","count":24},{"id":"office A","title":"office A","count":18},{"id":"miyata","title":"miyata","count":17},{"id":"office B","title":"office B","count":32},{"id":"recumbent","title":"recumbent","count":89},{"id":"tandem","title":"tandem","count":86},{"id":"wife","title":"wife","count":14},{"id":"son","title":"son","count":2},{"id":"grocery store","title":"grocery store","count":10},{"id":"just for fun","title":"just for fun","count":2},{"id":"Los Angeles","title":"Los Angeles","count":6},{"id":"school","title":"school","count":52},{"id":"horse camp","title":"horse camp","count":2},{"id":"yasha's heaven","title":"yasha's heaven","count":1},{"id":"seattle","title":"seattle","count":14},{"id":"walk","title":"walk","count":1},{"id":"office C","title":"office C","count":9},{"id":"with the kid","title":"with the kid","count":4},{"id":"ToTheEastCost","title":"ToTheEastCost","count":5}],"pages":270,"category":"all","index":[{"title":"Daily ride 2022-05-13 #540","gpx":["track.gpx"],"date":"2022-05-13","hash":["71de02b94cae6b566c9eee660dec6b21dfd66355674ab71f041d45246c000d41"],"id":"20220513","objects":[],"time":8885000,"distance":33879.20738677257,"uphill":74,"pointCount":95,"tags":[],"categories":["all"]},{"title":"Daily ride 2022-05-12 #539","gpx":["track.gpx"],"date":"2022-05-12","hash":["b1f0349cba0fbddbf6a87d749b47fa832a73f4692b384a170b033982af695e79"],"id":"20220512","objects":[{"type":"image","img":"20220512-photo0","lat":40.75075560415099,"lng":-111.83529383636055},{"type":"image","img":"20220512-photo1","lat":40.75969220281575,"lng":-111.78603634135884},{"type":"image","img":"20220512-photo10","lat":40.92356296625926,"lng":-111.34092077367066},{"type":"image","img":"20220512-photo11","lat":40.96099750677178,"lng":-111.24621403369675},{"type":"image","img":"20220512-photo12","lat":40.96099750677178,"lng":-111.24621403369675},{"type":"image","img":"20220512-photo2","lat":40.774262898396096,"lng":-111.7391308413829},{"type":"image","img":"20220512-photo3","lat":40.81689542653016,"lng":-111.6713969034805},{"type":"image","img":"20220512-photo4","lat":40.87986750396672,"lng":-111.58047788960475},{"type":"image","img":"20220512-photo5","lat":40.93958152750085,"lng":-111.55960331411384},{"type":"image","img":"20220512-photo6","lat":40.95447414813184,"lng":-111.40132110090049},{"type":"image","img":"20220512-photo7","lat":40.943304874113565,"lng":-111.3978086131257},{"type":"image","img":"20220512-photo8","lat":40.916536055905055,"lng":-111.39871930724021},{"type":"image","img":"20220512-photo9","lat":40.9241064948061,"lng":-111.37630946485359}],"time":47866000,"distance":118304.10532337564,"uphill":3905,"pointCount":455,"tags":[],"categories":["all","with-pictures"]}]},"__N_SSG":true}