{"pageProps":{"siteDescription":"Description of local dev version","siteTitle":"Local dev version","currentPage":"12","categories":[{"id":"all","title":"All","count":545},{"id":"with-pictures","title":"With pictures or videos","count":29},{"id":"office A","title":"office A","count":18},{"id":"miyata","title":"miyata","count":17},{"id":"office B","title":"office B","count":32},{"id":"recumbent","title":"recumbent","count":96},{"id":"tandem","title":"tandem","count":86},{"id":"wife","title":"wife","count":14},{"id":"son","title":"son","count":2},{"id":"grocery store","title":"grocery store","count":10},{"id":"just for fun","title":"just for fun","count":2},{"id":"Los Angeles","title":"Los Angeles","count":6},{"id":"school","title":"school","count":52},{"id":"horse camp","title":"horse camp","count":2},{"id":"yasha's heaven","title":"yasha's heaven","count":1},{"id":"seattle","title":"seattle","count":14},{"id":"walk","title":"walk","count":1},{"id":"office C","title":"office C","count":9},{"id":"with the kid","title":"with the kid","count":4},{"id":"ToTheEastCost","title":"ToTheEastCost","count":12}],"pages":15,"category":"with-pictures","index":[{"title":"Daily ride 2021-05-20 #333","description":"Day 6. Rain, snow, and temperature is around 0 degree of celsius. 1.3-1.4km of elevation","tags":["recumbent","seattle"],"gpx":["track.gpx"],"date":"2021-05-20","hash":["6ab007c4bb0821042b6be4850b52da467b50d031c137cf76026cc8af8a294dd1"],"id":"20210520","objects":[{"type":"image","img":"20210520-photo0","lat":41.00256236,"lng":-121.44531857},{"type":"image","img":"20210520-photo1","lat":41.00534303,"lng":-121.43729829},{"type":"image","img":"20210520-photo2","lat":41.07115692,"lng":-121.33684643},{"type":"image","img":"20210520-photo3","lat":41.08687463,"lng":-121.26697521},{"type":"image","img":"20210520-photo4","lat":41.08503319,"lng":-121.26646791},{"type":"image","img":"20210520-photo5","lat":41.05999878,"lng":-121.2167708},{"type":"image","img":"20210520-photo6","lat":41.19064884,"lng":-120.9443114},{"type":"image","img":"20210520-photo7","lat":41.19064884,"lng":-120.9443114},{"type":"image","img":"20210520-photo8","lat":41.22849309,"lng":-120.92124541},{"type":"image","img":"20210520-photo9","lat":41.2881427,"lng":-120.89120322}],"time":46075000,"distance":107626.39099234238,"uphill":627,"pointCount":689,"categories":["all","recumbent","seattle","with-pictures"]},{"title":"Daily ride 2021-05-19 #332","description":"Day 5. Uphill til 1800m, my personal record of altitude on a bike.","tags":["recumbent","seattle"],"gpx":["track.gpx"],"date":"2021-05-19","hash":["7889839d740560ffe06732acb70a19fc0a2d0a1cdeb94abacbc79b385e81e3d5"],"id":"20210519","objects":[{"type":"image","img":"20210519-photo0","lat":40.50463165,"lng":-121.83489495},{"type":"image","img":"20210519-photo1","lat":40.51817638,"lng":-121.68623009},{"type":"image","img":"20210519-photo10","lat":40.98861927,"lng":-121.51379804},{"type":"image","img":"20210519-photo11","lat":40.99696919,"lng":-121.49640902},{"type":"image","img":"20210519-photo12","lat":40.99696919,"lng":-121.49640902},{"type":"image","img":"20210519-photo2","lat":40.53227303,"lng":-121.62943512},{"type":"image","img":"20210519-photo3","lat":40.56005489,"lng":-121.57665377},{"type":"image","img":"20210519-photo4","lat":40.56131436,"lng":-121.5761863},{"type":"image","img":"20210519-photo5","lat":40.56237183,"lng":-121.57572686},{"type":"image","img":"20210519-photo6","lat":40.97245552,"lng":-121.56363366},{"type":"image","img":"20210519-photo7","lat":40.97245552,"lng":-121.56363366},{"type":"image","img":"20210519-photo8","lat":40.97245552,"lng":-121.56363366},{"type":"image","img":"20210519-photo9","lat":40.98080268,"lng":-121.54682239}],"time":41515000,"distance":117384.65206480635,"uphill":1093,"pointCount":632,"categories":["all","recumbent","seattle","with-pictures"]}]},"__N_SSG":true}