{"pageProps":{"siteDescription":"Description of local dev version","siteTitle":"Local dev version","currentPage":"4","categories":[{"id":"all","title":"All","count":546},{"id":"with-pictures","title":"With pictures or videos","count":31},{"id":"office A","title":"office A","count":18},{"id":"miyata","title":"miyata","count":17},{"id":"office B","title":"office B","count":32},{"id":"recumbent","title":"recumbent","count":101},{"id":"tandem","title":"tandem","count":86},{"id":"wife","title":"wife","count":14},{"id":"son","title":"son","count":2},{"id":"grocery store","title":"grocery store","count":10},{"id":"just for fun","title":"just for fun","count":2},{"id":"Los Angeles","title":"Los Angeles","count":6},{"id":"school","title":"school","count":52},{"id":"horse camp","title":"horse camp","count":2},{"id":"yasha's heaven","title":"yasha's heaven","count":1},{"id":"seattle","title":"seattle","count":14},{"id":"walk","title":"walk","count":1},{"id":"office C","title":"office C","count":9},{"id":"with the kid","title":"with the kid","count":4},{"id":"ToTheEastCost","title":"ToTheEastCost","count":17}],"pages":9,"category":"ToTheEastCost","index":[{"title":"Daily ride 2022-05-13 #540","description":"Day 11. Wyoming. Tent. Moved along I-80, that is legal","tags":["recumbent","ToTheEastCost"],"gpx":["track.gpx"],"date":"2022-05-13","hash":["bd141d05ec7b792582be0f2fb87b7170b809cbde55f5b11780c14fea36124a80"],"id":"20220513","objects":[{"type":"image","img":"20220513-photo0","lat":41.0165433028827,"lng":-111.03330259465048},{"type":"image","img":"20220513-photo1","lat":41.044059254084424,"lng":-111.02636349600256},{"type":"image","img":"20220513-photo10","lat":41.568718074338356,"lng":-109.2837358165033},{"type":"image","img":"20220513-photo11","lat":41.576303567777835,"lng":-109.23694675432195},{"type":"image","img":"20220513-photo2","lat":41.044059254084424,"lng":-111.02636349600256},{"type":"image","img":"20220513-photo3","lat":41.044059254084424,"lng":-111.02636349600256},{"type":"image","img":"20220513-photo4","lat":41.3249140378308,"lng":-110.47078459674722},{"type":"image","img":"20220513-photo5","lat":41.39255594817521,"lng":-110.18435805616427},{"type":"image","img":"20220513-photo6","lat":41.3949411728457,"lng":-110.17879075448604},{"type":"image","img":"20220513-photo7","lat":41.40826292998138,"lng":-110.14884026867858},{"type":"image","img":"20220513-photo8","lat":41.51105100726876,"lng":-109.98198407872941},{"type":"image","img":"20220513-photo9","lat":41.55506412958985,"lng":-109.5131793432785}],"time":43302000,"distance":200760.79193756776,"uphill":1263,"pointCount":427,"categories":["all","recumbent","ToTheEastCost","with-pictures"]},{"title":"Daily ride 2022-05-12 #539","description":"Day 10. Utah. Motel. Reached Wyoming and on the state border got a gravel road. There are no people and roads in this state definitely, only wind","tags":["recumbent","ToTheEastCost"],"gpx":["track.gpx"],"date":"2022-05-12","hash":["b1f0349cba0fbddbf6a87d749b47fa832a73f4692b384a170b033982af695e79"],"id":"20220512","objects":[{"type":"image","img":"20220512-photo0","lat":40.75075560415099,"lng":-111.83529383636055},{"type":"image","img":"20220512-photo1","lat":40.75969220281575,"lng":-111.78603634135884},{"type":"image","img":"20220512-photo10","lat":40.92356296625926,"lng":-111.34092077367066},{"type":"image","img":"20220512-photo11","lat":40.96099750677178,"lng":-111.24621403369675},{"type":"image","img":"20220512-photo12","lat":40.96099750677178,"lng":-111.24621403369675},{"type":"image","img":"20220512-photo2","lat":40.774262898396096,"lng":-111.7391308413829},{"type":"image","img":"20220512-photo3","lat":40.81689542653016,"lng":-111.6713969034805},{"type":"image","img":"20220512-photo4","lat":40.87986750396672,"lng":-111.58047788960475},{"type":"image","img":"20220512-photo5","lat":40.93958152750085,"lng":-111.55960331411384},{"type":"image","img":"20220512-photo6","lat":40.95447414813184,"lng":-111.40132110090049},{"type":"image","img":"20220512-photo7","lat":40.943304874113565,"lng":-111.3978086131257},{"type":"image","img":"20220512-photo8","lat":40.916536055905055,"lng":-111.39871930724021},{"type":"image","img":"20220512-photo9","lat":40.9241064948061,"lng":-111.37630946485359}],"time":47866000,"distance":118304.10532337564,"uphill":3905,"pointCount":455,"categories":["all","recumbent","ToTheEastCost","with-pictures"]}]},"__N_SSG":true}