{"pageProps":{"siteDescription":"Description of local dev version","siteTitle":"Local dev version","currentPage":"25","categories":[{"id":"all","title":"All","count":1243},{"id":"with-pictures","title":"With pictures or videos","count":53},{"id":"office A","title":"office A","count":18},{"id":"miyata","title":"miyata","count":17},{"id":"office B","title":"office B","count":32},{"id":"recumbent","title":"recumbent","count":122},{"id":"tandem","title":"tandem","count":90},{"id":"wife","title":"wife","count":15},{"id":"son","title":"son","count":2},{"id":"grocery store","title":"grocery store","count":10},{"id":"just for fun","title":"just for fun","count":2},{"id":"Los Angeles","title":"Los Angeles","count":6},{"id":"school","title":"school","count":52},{"id":"horse camp","title":"horse camp","count":2},{"id":"yasha's heaven","title":"yasha's heaven","count":1},{"id":"seattle","title":"seattle","count":14},{"id":"walk","title":"walk","count":1},{"id":"office C","title":"office C","count":9},{"id":"with the kid","title":"with the kid","count":6},{"id":"ToTheEastCoast","title":"ToTheEastCoast","count":38}],"pages":27,"category":"with-pictures","index":[{"title":"Daily ride 2021-05-18 #331","description":"Day 4. Tire corruption on a gravel road, uphill to 1km","tags":["recumbent","seattle"],"gpx":["track.gpx"],"date":"2021-05-18","hash":["71c10a3cf84cd7ea127b2125eb2ca227da10c108702fbda4ffd2170000266088"],"id":"20210518","objects":[{"type":"image","img":"20210518-photo0","timestamp":1621306569000,"lat":39.92610391,"lng":-122.19753541},{"type":"image","img":"20210518-photo1","timestamp":1621324608000,"lat":39.92610391,"lng":-122.19753541},{"type":"image","img":"20210518-photo2","timestamp":1621326560000,"lat":39.92752181,"lng":-122.19744308},{"type":"image","img":"20210518-photo3","timestamp":1621345967000,"lat":40.32373763,"lng":-122.06458669},{"type":"image","img":"20210518-photo4","timestamp":1621350251000,"lat":40.40477011,"lng":-121.99178789}],"time":40110000,"distance":93685.80922221683,"uphill":931,"pointCount":595,"categories":["all","recumbent","seattle","with-pictures"]},{"title":"Daily ride 2021-05-17 #330","description":"Day 3","tags":["recumbent","seattle"],"gpx":["track.gpx"],"date":"2021-05-17","hash":["db5049e5ce115516612f85002a248db315d6734232476416fb48b09500e6ee7a"],"id":"20210517","objects":[{"type":"image","img":"20210517-photo0","timestamp":1621216328000,"lat":38.89971749,"lng":-121.583041},{"type":"image","img":"20210517-photo1","timestamp":1621217560000,"lat":38.89971749,"lng":-121.583041},{"type":"image","img":"20210517-photo2","timestamp":1621227441000,"lat":38.89971749,"lng":-121.583041},{"type":"image","img":"20210517-photo3","timestamp":1621248008000,"lat":39.19328415,"lng":-121.65996399},{"type":"image","img":"20210517-photo4","timestamp":1621259443000,"lat":39.48258734,"lng":-121.74478026}],"time":47750000,"distance":161376.7420239237,"uphill":67,"pointCount":711,"categories":["all","recumbent","seattle","with-pictures"]}]},"__N_SSG":true}