{"pageProps":{"categories":[{"id":"all","title":"All","count":1243},{"id":"with-pictures","title":"With pictures or videos","count":53},{"id":"office A","title":"office A","count":18},{"id":"miyata","title":"miyata","count":17},{"id":"office B","title":"office B","count":32},{"id":"recumbent","title":"recumbent","count":122},{"id":"tandem","title":"tandem","count":90},{"id":"wife","title":"wife","count":15},{"id":"son","title":"son","count":2},{"id":"grocery store","title":"grocery store","count":10},{"id":"just for fun","title":"just for fun","count":2},{"id":"Los Angeles","title":"Los Angeles","count":6},{"id":"school","title":"school","count":52},{"id":"horse camp","title":"horse camp","count":2},{"id":"yasha's heaven","title":"yasha's heaven","count":1},{"id":"seattle","title":"seattle","count":14},{"id":"walk","title":"walk","count":1},{"id":"office C","title":"office C","count":9},{"id":"with the kid","title":"with the kid","count":6},{"id":"ToTheEastCoast","title":"ToTheEastCoast","count":38}],"tracks":[[{"lng":-122.03039295,"lat":37.35735012,"tm":1566839802000,"pathType":"line"},{"lng":-122.03053058,"lat":37.35958205,"tm":1566840045000,"pathType":"line"},{"lng":-122.0318715,"lat":37.36170436,"tm":1566840106000,"pathType":"line"},{"lng":-122.03234472,"lat":37.36483002,"tm":1566840167000,"pathType":"line"},{"lng":-122.03216035,"lat":37.36725598,"tm":1566840228000,"pathType":"line"},{"lng":-122.0314614,"lat":37.36769613,"tm":1566840289000,"pathType":"line"}],[{"lng":-122.03142321,"lat":37.36760906,"tm":1566841286000,"pathType":"line"},{"lng":-122.03145169,"lat":37.36947576,"tm":1566841409000,"pathType":"line"},{"lng":-122.03019211,"lat":37.37304095,"tm":1566841472000,"pathType":"line"},{"lng":-122.0290983,"lat":37.37638151,"tm":1566841535000,"pathType":"line"},{"lng":-122.02811677,"lat":37.37835853,"tm":1566841598000,"pathType":"line"},{"lng":-122.02727527,"lat":37.38131789,"tm":1566841661000,"pathType":"line"},{"lng":-122.02593492,"lat":37.38528242,"tm":1566841723000,"pathType":"line"},{"lng":-122.02771374,"lat":37.38882446,"tm":1566841785000,"pathType":"line"},{"lng":-122.03065806,"lat":37.39044266,"tm":1566841846000,"pathType":"line"},{"lng":-122.03102706,"lat":37.39132078,"tm":1566841910000,"pathType":"line"},{"lng":-122.03154031,"lat":37.39127179,"tm":1566841971000,"pathType":"line"}],[{"lng":-122.03120988,"lat":37.39116963,"tm":1566868406000,"pathType":"line"},{"lng":-122.03115147,"lat":37.38944643,"tm":1566868467000,"pathType":"line"},{"lng":-122.02913699,"lat":37.38939644,"tm":1566868528000,"pathType":"line"},{"lng":-122.02663531,"lat":37.38642638,"tm":1566868589000,"pathType":"line"},{"lng":-122.02662219,"lat":37.3834573,"tm":1566868653000,"pathType":"line"},{"lng":-122.02723036,"lat":37.38133325,"tm":1566868715000,"pathType":"line"},{"lng":-122.02851003,"lat":37.37774166,"tm":1566868776000,"pathType":"line"},{"lng":-122.02989865,"lat":37.37371562,"tm":1566868844000,"pathType":"line"},{"lng":-122.03159619,"lat":37.3692777,"tm":1566868908000,"pathType":"line"},{"lng":-122.03173667,"lat":37.3680544,"tm":1566868974000,"pathType":"line"},{"lng":-122.02918422,"lat":37.36513227,"tm":1566869039000,"pathType":"line"},{"lng":-122.02687867,"lat":37.36330734,"tm":1566869105000,"pathType":"line"},{"lng":-122.02580667,"lat":37.36001439,"tm":1566869168000,"pathType":"line"},{"lng":-122.02985255,"lat":37.35885586,"tm":1566869232000,"pathType":"line"},{"lng":-122.03009236,"lat":37.35781985,"tm":1566869299000,"pathType":"line"}]],"objects":[],"title":"Daily ride 2019-08-26","description":"","trackId":"20190826","distance":8.6,"time":"0:34","uphill":43},"__N_SSG":true}