{"pageProps":{"categories":[{"id":"all","title":"All","count":1243},{"id":"with-pictures","title":"With pictures or videos","count":53},{"id":"office A","title":"office A","count":18},{"id":"miyata","title":"miyata","count":17},{"id":"office B","title":"office B","count":32},{"id":"recumbent","title":"recumbent","count":122},{"id":"tandem","title":"tandem","count":90},{"id":"wife","title":"wife","count":15},{"id":"son","title":"son","count":2},{"id":"grocery store","title":"grocery store","count":10},{"id":"just for fun","title":"just for fun","count":2},{"id":"Los Angeles","title":"Los Angeles","count":6},{"id":"school","title":"school","count":52},{"id":"horse camp","title":"horse camp","count":2},{"id":"yasha's heaven","title":"yasha's heaven","count":1},{"id":"seattle","title":"seattle","count":14},{"id":"walk","title":"walk","count":1},{"id":"office C","title":"office C","count":9},{"id":"with the kid","title":"with the kid","count":6},{"id":"ToTheEastCoast","title":"ToTheEastCoast","count":38}],"tracks":[[{"lng":-122.03124518,"lat":37.36018922,"tm":1558727906000,"pathType":"line"},{"lng":-122.0321219,"lat":37.36284862,"tm":1558727967000,"pathType":"line"},{"lng":-122.03229155,"lat":37.36620316,"tm":1558728027000,"pathType":"line"},{"lng":-122.03217368,"lat":37.36732939,"tm":1558728088000,"pathType":"line"},{"lng":-122.03178445,"lat":37.36803628,"tm":1558728148000,"pathType":"line"},{"lng":-122.0307994,"lat":37.37123088,"tm":1558728209000,"pathType":"line"},{"lng":-122.02964898,"lat":37.37470131,"tm":1558728270000,"pathType":"line"},{"lng":-122.02874833,"lat":37.37714307,"tm":1558728330000,"pathType":"line"},{"lng":-122.02775314,"lat":37.379652,"tm":1558728391000,"pathType":"line"},{"lng":-122.02650804,"lat":37.38324685,"tm":1558728451000,"pathType":"line"},{"lng":-122.02551562,"lat":37.38630801,"tm":1558728512000,"pathType":"line"},{"lng":-122.02503189,"lat":37.38773679,"tm":1558728572000,"pathType":"line"},{"lng":-122.02801796,"lat":37.38892381,"tm":1558728633000,"pathType":"line"},{"lng":-122.03020574,"lat":37.38970675,"tm":1558728694000,"pathType":"line"},{"lng":-122.03133252,"lat":37.39067917,"tm":1558728755000,"pathType":"line"},{"lng":-122.03085673,"lat":37.39116747,"tm":1558728816000,"pathType":"line"}],[{"lng":-122.03094214,"lat":37.3912895,"tm":1558744603000,"pathType":"line"},{"lng":-122.03076807,"lat":37.38962083,"tm":1558744669000,"pathType":"line"},{"lng":-122.02872661,"lat":37.38909454,"tm":1558744730000,"pathType":"line"},{"lng":-122.02550542,"lat":37.38676556,"tm":1558744790000,"pathType":"line"},{"lng":-122.02663667,"lat":37.38352878,"tm":1558744852000,"pathType":"line"},{"lng":-122.02742352,"lat":37.38112395,"tm":1558744913000,"pathType":"line"},{"lng":-122.02865797,"lat":37.37763997,"tm":1558744974000,"pathType":"line"},{"lng":-122.02923543,"lat":37.37656103,"tm":1558745034000,"pathType":"line"},{"lng":-122.0299356,"lat":37.3744006,"tm":1558745095000,"pathType":"line"},{"lng":-122.03095775,"lat":37.37127489,"tm":1558745156000,"pathType":"line"},{"lng":-122.03205222,"lat":37.36785578,"tm":1558745217000,"pathType":"line"},{"lng":-122.02910685,"lat":37.36493482,"tm":1558745338000,"pathType":"line"},{"lng":-122.02748235,"lat":37.36361515,"tm":1558745399000,"pathType":"line"},{"lng":-122.02557075,"lat":37.36060389,"tm":1558745460000,"pathType":"line"},{"lng":-122.02947297,"lat":37.35904918,"tm":1558745521000,"pathType":"line"},{"lng":-122.03018642,"lat":37.35837529,"tm":1558745581000,"pathType":"line"},{"lng":-122.0304609,"lat":37.35747581,"tm":1558745642000,"pathType":"line"}]],"objects":[],"title":"Daily ride 2019-05-24","description":"","trackId":"20190524","distance":8.4,"time":"0:32","uphill":0},"__N_SSG":true}