{"pageProps":{"categories":[{"id":"all","title":"All","count":1243},{"id":"with-pictures","title":"With pictures or videos","count":53},{"id":"office A","title":"office A","count":18},{"id":"miyata","title":"miyata","count":17},{"id":"office B","title":"office B","count":32},{"id":"recumbent","title":"recumbent","count":122},{"id":"tandem","title":"tandem","count":90},{"id":"wife","title":"wife","count":15},{"id":"son","title":"son","count":2},{"id":"grocery store","title":"grocery store","count":10},{"id":"just for fun","title":"just for fun","count":2},{"id":"Los Angeles","title":"Los Angeles","count":6},{"id":"school","title":"school","count":52},{"id":"horse camp","title":"horse camp","count":2},{"id":"yasha's heaven","title":"yasha's heaven","count":1},{"id":"seattle","title":"seattle","count":14},{"id":"walk","title":"walk","count":1},{"id":"office C","title":"office C","count":9},{"id":"with the kid","title":"with the kid","count":6},{"id":"ToTheEastCoast","title":"ToTheEastCoast","count":38}],"tracks":[[{"lng":-122.03048065,"lat":37.3575737,"tm":1557249248000,"pathType":"line"},{"lng":-122.03056116,"lat":37.35951462,"tm":1557249311000,"pathType":"line"},{"lng":-122.0322125,"lat":37.36243877,"tm":1557249394000,"pathType":"line"},{"lng":-122.03212541,"lat":37.36735379,"tm":1557249481000,"pathType":"line"},{"lng":-122.03176355,"lat":37.36798163,"tm":1557249564000,"pathType":"line"},{"lng":-122.03082576,"lat":37.37096096,"tm":1557249626000,"pathType":"line"},{"lng":-122.03001153,"lat":37.37391656,"tm":1557249687000,"pathType":"line"},{"lng":-122.02938789,"lat":37.37557743,"tm":1557249748000,"pathType":"line"},{"lng":-122.02813578,"lat":37.37828909,"tm":1557249809000,"pathType":"line"},{"lng":-122.02694184,"lat":37.38215413,"tm":1557249870000,"pathType":"line"},{"lng":-122.02559955,"lat":37.38617119,"tm":1557249930000,"pathType":"line"},{"lng":-122.02496996,"lat":37.38774841,"tm":1557249991000,"pathType":"line"},{"lng":-122.02827954,"lat":37.38900709,"tm":1557250052000,"pathType":"line"},{"lng":-122.03116705,"lat":37.39087384,"tm":1557250113000,"pathType":"line"},{"lng":-122.03101802,"lat":37.39116022,"tm":1557250234000,"pathType":"line"}],[{"lng":-122.03148306,"lat":37.38983547,"tm":1557277569000,"pathType":"line"},{"lng":-122.02875611,"lat":37.38900588,"tm":1557277632000,"pathType":"line"},{"lng":-122.02607392,"lat":37.38816436,"tm":1557277713000,"pathType":"line"},{"lng":-122.02648033,"lat":37.38370062,"tm":1557277800000,"pathType":"line"},{"lng":-122.02727908,"lat":37.38142194,"tm":1557277863000,"pathType":"line"},{"lng":-122.02846666,"lat":37.37799113,"tm":1557277925000,"pathType":"line"},{"lng":-122.02958113,"lat":37.37532177,"tm":1557278008000,"pathType":"line"},{"lng":-122.03095056,"lat":37.37130833,"tm":1557278086000,"pathType":"line"},{"lng":-122.03183282,"lat":37.36846362,"tm":1557278170000,"pathType":"line"},{"lng":-122.03185934,"lat":37.36823279,"tm":1557278232000,"pathType":"line"},{"lng":-122.03201429,"lat":37.36727748,"tm":1557278293000,"pathType":"line"},{"lng":-122.02914426,"lat":37.36506329,"tm":1557278354000,"pathType":"line"},{"lng":-122.02680697,"lat":37.36290643,"tm":1557278417000,"pathType":"line"},{"lng":-122.02564936,"lat":37.36029866,"tm":1557278477000,"pathType":"line"},{"lng":-122.02787418,"lat":37.35904907,"tm":1557278541000,"pathType":"line"},{"lng":-122.03021971,"lat":37.35841875,"tm":1557278603000,"pathType":"line"},{"lng":-122.03031371,"lat":37.35751558,"tm":1557278666000,"pathType":"line"}]],"objects":[],"title":"Daily ride 2019-05-07","description":"","trackId":"20190507","distance":8.8,"time":"0:35","uphill":50},"__N_SSG":true}