{"pageProps":{"categories":[{"id":"all","title":"All","count":1243},{"id":"with-pictures","title":"With pictures or videos","count":53},{"id":"office A","title":"office A","count":18},{"id":"miyata","title":"miyata","count":17},{"id":"office B","title":"office B","count":32},{"id":"recumbent","title":"recumbent","count":122},{"id":"tandem","title":"tandem","count":90},{"id":"wife","title":"wife","count":15},{"id":"son","title":"son","count":2},{"id":"grocery store","title":"grocery store","count":10},{"id":"just for fun","title":"just for fun","count":2},{"id":"Los Angeles","title":"Los Angeles","count":6},{"id":"school","title":"school","count":52},{"id":"horse camp","title":"horse camp","count":2},{"id":"yasha's heaven","title":"yasha's heaven","count":1},{"id":"seattle","title":"seattle","count":14},{"id":"walk","title":"walk","count":1},{"id":"office C","title":"office C","count":9},{"id":"with the kid","title":"with the kid","count":6},{"id":"ToTheEastCoast","title":"ToTheEastCoast","count":38}],"tracks":[[{"lng":-122.03049716,"lat":37.35728211,"tm":1557421617000,"pathType":"line"},{"lng":-122.02996543,"lat":37.35883003,"tm":1557421681000,"pathType":"line"},{"lng":-122.03138345,"lat":37.36161215,"tm":1557421766000,"pathType":"line"},{"lng":-122.03228158,"lat":37.36569356,"tm":1557421848000,"pathType":"line"},{"lng":-122.03209315,"lat":37.36731599,"tm":1557421912000,"pathType":"line"},{"lng":-122.03138734,"lat":37.36950736,"tm":1557421972000,"pathType":"line"},{"lng":-122.03012485,"lat":37.37329135,"tm":1557422032000,"pathType":"line"},{"lng":-122.02933085,"lat":37.37566816,"tm":1557422093000,"pathType":"line"},{"lng":-122.02801004,"lat":37.3786197,"tm":1557422153000,"pathType":"line"},{"lng":-122.02659281,"lat":37.38309779,"tm":1557422214000,"pathType":"line"},{"lng":-122.02543877,"lat":37.38665558,"tm":1557422274000,"pathType":"line"},{"lng":-122.02693848,"lat":37.38857896,"tm":1557422335000,"pathType":"line"},{"lng":-122.0302742,"lat":37.38966134,"tm":1557422395000,"pathType":"line"},{"lng":-122.03099815,"lat":37.39110111,"tm":1557422577000,"pathType":"line"}],[{"lng":-122.03159638,"lat":37.39035874,"tm":1557450104000,"pathType":"line"},{"lng":-122.0307799,"lat":37.38968401,"tm":1557450191000,"pathType":"line"},{"lng":-122.02741767,"lat":37.38862048,"tm":1557450272000,"pathType":"line"},{"lng":-122.02568795,"lat":37.38803276,"tm":1557450360000,"pathType":"line"},{"lng":-122.02676623,"lat":37.38304697,"tm":1557450445000,"pathType":"line"},{"lng":-122.02787662,"lat":37.37983499,"tm":1557450506000,"pathType":"line"},{"lng":-122.02913079,"lat":37.37681413,"tm":1557450591000,"pathType":"line"},{"lng":-122.02996668,"lat":37.37426947,"tm":1557450678000,"pathType":"line"},{"lng":-122.03057738,"lat":37.37271691,"tm":1557450741000,"pathType":"line"},{"lng":-122.03172237,"lat":37.36906633,"tm":1557450801000,"pathType":"line"},{"lng":-122.03198755,"lat":37.36797907,"tm":1557450861000,"pathType":"line"},{"lng":-122.02945514,"lat":37.36524692,"tm":1557450982000,"pathType":"line"},{"lng":-122.0278044,"lat":37.36391809,"tm":1557451043000,"pathType":"line"},{"lng":-122.02535675,"lat":37.36109265,"tm":1557451104000,"pathType":"line"},{"lng":-122.02658879,"lat":37.35945258,"tm":1557451164000,"pathType":"line"},{"lng":-122.02690805,"lat":37.35933848,"tm":1557451306000,"pathType":"line"},{"lng":-122.02710741,"lat":37.35915192,"tm":1557451368000,"pathType":"line"},{"lng":-122.02766152,"lat":37.35906235,"tm":1557451432000,"pathType":"line"},{"lng":-122.02790945,"lat":37.35915431,"tm":1557451496000,"pathType":"line"},{"lng":-122.0284383,"lat":37.35892485,"tm":1557451562000,"pathType":"line"},{"lng":-122.02920777,"lat":37.35894168,"tm":1557451626000,"pathType":"line"},{"lng":-122.02990482,"lat":37.35880468,"tm":1557451690000,"pathType":"line"},{"lng":-122.03014761,"lat":37.35847383,"tm":1557451757000,"pathType":"line"},{"lng":-122.03018149,"lat":37.3580417,"tm":1557451817000,"pathType":"line"},{"lng":-122.03034898,"lat":37.35746395,"tm":1557451878000,"pathType":"line"}]],"objects":[],"title":"Daily ride 2019-05-09","description":"","trackId":"20190509","distance":8.8,"time":"0:46","uphill":36},"__N_SSG":true}