{"pageProps":{"categories":[{"id":"all","title":"All","count":1243},{"id":"with-pictures","title":"With pictures or videos","count":53},{"id":"office A","title":"office A","count":18},{"id":"miyata","title":"miyata","count":17},{"id":"office B","title":"office B","count":32},{"id":"recumbent","title":"recumbent","count":122},{"id":"tandem","title":"tandem","count":90},{"id":"wife","title":"wife","count":15},{"id":"son","title":"son","count":2},{"id":"grocery store","title":"grocery store","count":10},{"id":"just for fun","title":"just for fun","count":2},{"id":"Los Angeles","title":"Los Angeles","count":6},{"id":"school","title":"school","count":52},{"id":"horse camp","title":"horse camp","count":2},{"id":"yasha's heaven","title":"yasha's heaven","count":1},{"id":"seattle","title":"seattle","count":14},{"id":"walk","title":"walk","count":1},{"id":"office C","title":"office C","count":9},{"id":"with the kid","title":"with the kid","count":6},{"id":"ToTheEastCoast","title":"ToTheEastCoast","count":38}],"tracks":[[{"lng":-122.03034918,"lat":37.35740504,"tm":1569259617000,"pathType":"line"},{"lng":-122.03004864,"lat":37.35873964,"tm":1569259813000,"pathType":"line"},{"lng":-122.03152454,"lat":37.36057469,"tm":1569259873000,"pathType":"line"},{"lng":-122.03229717,"lat":37.363688,"tm":1569259934000,"pathType":"line"},{"lng":-122.03197436,"lat":37.36765487,"tm":1569259997000,"pathType":"line"},{"lng":-122.03063424,"lat":37.3721827,"tm":1569260061000,"pathType":"line"},{"lng":-122.02932431,"lat":37.37564545,"tm":1569260124000,"pathType":"line"},{"lng":-122.02825026,"lat":37.378341,"tm":1569260188000,"pathType":"line"},{"lng":-122.02676593,"lat":37.3826301,"tm":1569260249000,"pathType":"line"},{"lng":-122.02539112,"lat":37.38683536,"tm":1569260310000,"pathType":"line"},{"lng":-122.02644134,"lat":37.3884484,"tm":1569260374000,"pathType":"line"},{"lng":-122.03028934,"lat":37.38964104,"tm":1569260437000,"pathType":"line"},{"lng":-122.03125228,"lat":37.39098995,"tm":1569260567000,"pathType":"line"}],[{"lng":-122.03035886,"lat":37.38946306,"tm":1569285706000,"pathType":"line"},{"lng":-122.02644847,"lat":37.3872304,"tm":1569285771000,"pathType":"line"},{"lng":-122.02751091,"lat":37.38381055,"tm":1569285832000,"pathType":"line"},{"lng":-122.02734358,"lat":37.38119079,"tm":1569285895000,"pathType":"line"},{"lng":-122.02839711,"lat":37.37807198,"tm":1569285963000,"pathType":"line"},{"lng":-122.02873156,"lat":37.37747699,"tm":1569286024000,"pathType":"line"},{"lng":-122.0299809,"lat":37.37418818,"tm":1569286084000,"pathType":"line"},{"lng":-122.03049061,"lat":37.37263836,"tm":1569286148000,"pathType":"line"},{"lng":-122.03163407,"lat":37.36901986,"tm":1569286212000,"pathType":"line"},{"lng":-122.03048364,"lat":37.36615504,"tm":1569286273000,"pathType":"line"},{"lng":-122.02718326,"lat":37.36345398,"tm":1569286336000,"pathType":"line"},{"lng":-122.02577154,"lat":37.3599704,"tm":1569286399000,"pathType":"line"},{"lng":-122.02972341,"lat":37.35904673,"tm":1569286462000,"pathType":"line"},{"lng":-122.03051685,"lat":37.35743703,"tm":1569286525000,"pathType":"line"}]],"objects":[],"title":"Daily ride 2019-09-23","description":"","trackId":"20190923","distance":8.6,"time":"0:29","uphill":32},"__N_SSG":true}