{"pageProps":{"categories":[{"id":"all","title":"All","count":1243},{"id":"with-pictures","title":"With pictures or videos","count":53},{"id":"office A","title":"office A","count":18},{"id":"miyata","title":"miyata","count":17},{"id":"office B","title":"office B","count":32},{"id":"recumbent","title":"recumbent","count":122},{"id":"tandem","title":"tandem","count":90},{"id":"wife","title":"wife","count":15},{"id":"son","title":"son","count":2},{"id":"grocery store","title":"grocery store","count":10},{"id":"just for fun","title":"just for fun","count":2},{"id":"Los Angeles","title":"Los Angeles","count":6},{"id":"school","title":"school","count":52},{"id":"horse camp","title":"horse camp","count":2},{"id":"yasha's heaven","title":"yasha's heaven","count":1},{"id":"seattle","title":"seattle","count":14},{"id":"walk","title":"walk","count":1},{"id":"office C","title":"office C","count":9},{"id":"with the kid","title":"with the kid","count":6},{"id":"ToTheEastCoast","title":"ToTheEastCoast","count":38}],"tracks":[[{"lng":-122.03046264,"lat":37.35940774,"tm":1561051391000,"pathType":"line"},{"lng":-122.0315952,"lat":37.36174121,"tm":1561051453000,"pathType":"line"},{"lng":-122.03228138,"lat":37.36487777,"tm":1561051514000,"pathType":"line"},{"lng":-122.03202621,"lat":37.36750175,"tm":1561051574000,"pathType":"line"},{"lng":-122.03106713,"lat":37.37045841,"tm":1561051635000,"pathType":"line"},{"lng":-122.02938686,"lat":37.37549863,"tm":1561051696000,"pathType":"line"},{"lng":-122.02802845,"lat":37.37882041,"tm":1561051757000,"pathType":"line"},{"lng":-122.02690914,"lat":37.38224214,"tm":1561051817000,"pathType":"line"},{"lng":-122.02568137,"lat":37.38599519,"tm":1561051878000,"pathType":"line"},{"lng":-122.02505113,"lat":37.38773935,"tm":1561051938000,"pathType":"line"},{"lng":-122.02657572,"lat":37.38840729,"tm":1561051999000,"pathType":"line"},{"lng":-122.03033772,"lat":37.38969898,"tm":1561052060000,"pathType":"line"},{"lng":-122.03083579,"lat":37.39109645,"tm":1561052126000,"pathType":"line"},{"lng":-122.03098778,"lat":37.39124581,"tm":1561052187000,"pathType":"line"}],[{"lng":-122.03039301,"lat":37.3908269,"tm":1561079947000,"pathType":"line"},{"lng":-122.0307929,"lat":37.38956874,"tm":1561080010000,"pathType":"line"},{"lng":-122.02845909,"lat":37.38890996,"tm":1561080073000,"pathType":"line"},{"lng":-122.02561594,"lat":37.38644368,"tm":1561080134000,"pathType":"line"},{"lng":-122.02693029,"lat":37.38243448,"tm":1561080195000,"pathType":"line"},{"lng":-122.0281555,"lat":37.37876782,"tm":1561080256000,"pathType":"line"},{"lng":-122.02877153,"lat":37.3774798,"tm":1561080316000,"pathType":"line"},{"lng":-122.0293098,"lat":37.37622044,"tm":1561080377000,"pathType":"line"},{"lng":-122.0299989,"lat":37.37420134,"tm":1561080437000,"pathType":"line"},{"lng":-122.03091701,"lat":37.3714054,"tm":1561080498000,"pathType":"line"},{"lng":-122.03192008,"lat":37.36804964,"tm":1561080559000,"pathType":"line"},{"lng":-122.02942007,"lat":37.3652201,"tm":1561080680000,"pathType":"line"},{"lng":-122.02618786,"lat":37.36256513,"tm":1561080741000,"pathType":"line"},{"lng":-122.02610637,"lat":37.35978014,"tm":1561080801000,"pathType":"line"},{"lng":-122.02818065,"lat":37.35890858,"tm":1561080862000,"pathType":"line"},{"lng":-122.03003172,"lat":37.35867795,"tm":1561080923000,"pathType":"line"},{"lng":-122.03006741,"lat":37.35836542,"tm":1561081104000,"pathType":"line"},{"lng":-122.03019928,"lat":37.35793133,"tm":1561081408000,"pathType":"line"},{"lng":-122.03035069,"lat":37.35740333,"tm":1561081469000,"pathType":"line"}]],"objects":[],"title":"Daily ride 2019-06-20","description":"","trackId":"20190620","distance":8.5,"time":"0:39","uphill":58},"__N_SSG":true}