{"pageProps":{"categories":[{"id":"all","title":"All","count":1243},{"id":"with-pictures","title":"With pictures or videos","count":53},{"id":"office A","title":"office A","count":18},{"id":"miyata","title":"miyata","count":17},{"id":"office B","title":"office B","count":32},{"id":"recumbent","title":"recumbent","count":122},{"id":"tandem","title":"tandem","count":90},{"id":"wife","title":"wife","count":15},{"id":"son","title":"son","count":2},{"id":"grocery store","title":"grocery store","count":10},{"id":"just for fun","title":"just for fun","count":2},{"id":"Los Angeles","title":"Los Angeles","count":6},{"id":"school","title":"school","count":52},{"id":"horse camp","title":"horse camp","count":2},{"id":"yasha's heaven","title":"yasha's heaven","count":1},{"id":"seattle","title":"seattle","count":14},{"id":"walk","title":"walk","count":1},{"id":"office C","title":"office C","count":9},{"id":"with the kid","title":"with the kid","count":6},{"id":"ToTheEastCoast","title":"ToTheEastCoast","count":38}],"tracks":[[{"lng":-122.0320795,"lat":37.30308816,"tm":1627328947000,"pathType":"line"},{"lng":-122.03208519,"lat":37.3054934,"tm":1627329010000,"pathType":"line"},{"lng":-122.03210995,"lat":37.3084418,"tm":1627329071000,"pathType":"line"},{"lng":-122.03210479,"lat":37.31129608,"tm":1627329132000,"pathType":"line"},{"lng":-122.03211639,"lat":37.31197788,"tm":1627329194000,"pathType":"line"},{"lng":-122.03223618,"lat":37.31556427,"tm":1627329257000,"pathType":"line"},{"lng":-122.03210807,"lat":37.31574711,"tm":1627329319000,"pathType":"line"},{"lng":-122.03215545,"lat":37.31747465,"tm":1627329386000,"pathType":"line"},{"lng":-122.03164109,"lat":37.31895206,"tm":1627329451000,"pathType":"line"},{"lng":-122.03193108,"lat":37.31899502,"tm":1627329698000,"pathType":"line"},{"lng":-122.03187274,"lat":37.31932492,"tm":1627329941000,"pathType":"line"},{"lng":-122.03245976,"lat":37.31839837,"tm":1627330062000,"pathType":"line"},{"lng":-122.03244841,"lat":37.31598685,"tm":1627330122000,"pathType":"line"},{"lng":-122.03493879,"lat":37.31566337,"tm":1627330183000,"pathType":"line"},{"lng":-122.03733697,"lat":37.31564844,"tm":1627330243000,"pathType":"line"},{"lng":-122.03969202,"lat":37.31562546,"tm":1627330304000,"pathType":"line"},{"lng":-122.04127623,"lat":37.31567281,"tm":1627330365000,"pathType":"line"},{"lng":-122.04302951,"lat":37.31563832,"tm":1627330426000,"pathType":"line"},{"lng":-122.04561001,"lat":37.31562567,"tm":1627330487000,"pathType":"line"},{"lng":-122.04772944,"lat":37.3156428,"tm":1627330548000,"pathType":"line"},{"lng":-122.04995395,"lat":37.31562501,"tm":1627330608000,"pathType":"line"},{"lng":-122.05078097,"lat":37.31670354,"tm":1627330669000,"pathType":"line"},{"lng":-122.05224212,"lat":37.31735849,"tm":1627330730000,"pathType":"line"},{"lng":-122.05173479,"lat":37.31716724,"tm":1627330799000,"pathType":"line"},{"lng":-122.05202025,"lat":37.31759014,"tm":1627330921000,"pathType":"line"}],[{"lng":-122.05219983,"lat":37.31733434,"tm":1627343242000,"pathType":"line"},{"lng":-122.05111561,"lat":37.31706554,"tm":1627343303000,"pathType":"line"},{"lng":-122.05029118,"lat":37.31550252,"tm":1627343363000,"pathType":"line"},{"lng":-122.04657703,"lat":37.3155232,"tm":1627343423000,"pathType":"line"},{"lng":-122.04195571,"lat":37.31552263,"tm":1627343484000,"pathType":"line"},{"lng":-122.04099148,"lat":37.3155661,"tm":1627343545000,"pathType":"line"},{"lng":-122.03772427,"lat":37.31557668,"tm":1627343606000,"pathType":"line"},{"lng":-122.03350796,"lat":37.31554131,"tm":1627343667000,"pathType":"line"},{"lng":-122.03243643,"lat":37.31416262,"tm":1627343727000,"pathType":"line"},{"lng":-122.03246323,"lat":37.3123707,"tm":1627343787000,"pathType":"line"},{"lng":-122.03241269,"lat":37.31014016,"tm":1627343847000,"pathType":"line"},{"lng":-122.03242792,"lat":37.30826879,"tm":1627343908000,"pathType":"line"},{"lng":-122.03012435,"lat":37.30835637,"tm":1627344029000,"pathType":"line"},{"lng":-122.02959563,"lat":37.3060309,"tm":1627344090000,"pathType":"line"},{"lng":-122.02961474,"lat":37.30385175,"tm":1627344151000,"pathType":"line"}]],"objects":[],"title":"Daily ride 2021-07-26","description":"","trackId":"20210726","distance":7.5,"time":"0:48","uphill":48},"__N_SSG":true}