{"pageProps":{"categories":[{"id":"all","title":"All","count":1243},{"id":"with-pictures","title":"With pictures or videos","count":53},{"id":"office A","title":"office A","count":18},{"id":"miyata","title":"miyata","count":17},{"id":"office B","title":"office B","count":32},{"id":"recumbent","title":"recumbent","count":122},{"id":"tandem","title":"tandem","count":90},{"id":"wife","title":"wife","count":15},{"id":"son","title":"son","count":2},{"id":"grocery store","title":"grocery store","count":10},{"id":"just for fun","title":"just for fun","count":2},{"id":"Los Angeles","title":"Los Angeles","count":6},{"id":"school","title":"school","count":52},{"id":"horse camp","title":"horse camp","count":2},{"id":"yasha's heaven","title":"yasha's heaven","count":1},{"id":"seattle","title":"seattle","count":14},{"id":"walk","title":"walk","count":1},{"id":"office C","title":"office C","count":9},{"id":"with the kid","title":"with the kid","count":6},{"id":"ToTheEastCoast","title":"ToTheEastCoast","count":38}],"tracks":[[{"lng":-122.03197077,"lat":37.30230702,"tm":1626205828000,"pathType":"line"},{"lng":-122.03218582,"lat":37.30371702,"tm":1626205890000,"pathType":"line"},{"lng":-122.03217107,"lat":37.30630894,"tm":1626205950000,"pathType":"line"},{"lng":-122.03206529,"lat":37.30947657,"tm":1626206011000,"pathType":"line"},{"lng":-122.03213276,"lat":37.3119751,"tm":1626206072000,"pathType":"line"},{"lng":-122.03213587,"lat":37.31310342,"tm":1626206133000,"pathType":"line"},{"lng":-122.03216377,"lat":37.31569281,"tm":1626206193000,"pathType":"line"},{"lng":-122.03216771,"lat":37.31601317,"tm":1626206254000,"pathType":"line"},{"lng":-122.03253881,"lat":37.31578216,"tm":1626206359000,"pathType":"line"},{"lng":-122.03505374,"lat":37.31553191,"tm":1626206421000,"pathType":"line"},{"lng":-122.03716414,"lat":37.31570181,"tm":1626206481000,"pathType":"line"},{"lng":-122.03897108,"lat":37.31562672,"tm":1626206542000,"pathType":"line"},{"lng":-122.0411893,"lat":37.31560493,"tm":1626206603000,"pathType":"line"},{"lng":-122.04289712,"lat":37.3156518,"tm":1626206664000,"pathType":"line"},{"lng":-122.0451654,"lat":37.31561493,"tm":1626206726000,"pathType":"line"},{"lng":-122.0474204,"lat":37.31567583,"tm":1626206788000,"pathType":"line"},{"lng":-122.04935077,"lat":37.31565276,"tm":1626206851000,"pathType":"line"},{"lng":-122.05046824,"lat":37.31629067,"tm":1626206912000,"pathType":"line"},{"lng":-122.0517672,"lat":37.3171723,"tm":1626206973000,"pathType":"line"},{"lng":-122.05153177,"lat":37.31738445,"tm":1626207034000,"pathType":"line"},{"lng":-122.05174941,"lat":37.31778546,"tm":1626207134000,"pathType":"line"},{"lng":-122.05218286,"lat":37.31758,"tm":1626207195000,"pathType":"line"}],[{"lng":-122.05215727,"lat":37.31778701,"tm":1626222432000,"pathType":"line"},{"lng":-122.05207187,"lat":37.31753543,"tm":1626222597000,"pathType":"line"},{"lng":-122.05053783,"lat":37.31636961,"tm":1626222725000,"pathType":"line"},{"lng":-122.04973024,"lat":37.31554754,"tm":1626222785000,"pathType":"line"},{"lng":-122.04522148,"lat":37.31559686,"tm":1626222846000,"pathType":"line"},{"lng":-122.04120216,"lat":37.31558499,"tm":1626222907000,"pathType":"line"},{"lng":-122.03709748,"lat":37.31558,"tm":1626222967000,"pathType":"line"},{"lng":-122.03300456,"lat":37.31553954,"tm":1626223027000,"pathType":"line"},{"lng":-122.03245157,"lat":37.31377325,"tm":1626223088000,"pathType":"line"},{"lng":-122.03245553,"lat":37.31191816,"tm":1626223148000,"pathType":"line"},{"lng":-122.03243479,"lat":37.3095201,"tm":1626223209000,"pathType":"line"},{"lng":-122.03245911,"lat":37.30817494,"tm":1626223269000,"pathType":"line"},{"lng":-122.03198549,"lat":37.30826045,"tm":1626223330000,"pathType":"line"},{"lng":-122.02961207,"lat":37.30734365,"tm":1626223391000,"pathType":"line"},{"lng":-122.02967669,"lat":37.30525762,"tm":1626223451000,"pathType":"line"},{"lng":-122.02967043,"lat":37.30342367,"tm":1626223511000,"pathType":"line"}]],"objects":[],"title":"Daily ride 2021-07-13","description":"","trackId":"20210713","distance":6.8,"time":"0:41","uphill":93},"__N_SSG":true}