{"pageProps":{"categories":[{"id":"all","title":"All","count":1243},{"id":"with-pictures","title":"With pictures or videos","count":53},{"id":"office A","title":"office A","count":18},{"id":"miyata","title":"miyata","count":17},{"id":"office B","title":"office B","count":32},{"id":"recumbent","title":"recumbent","count":122},{"id":"tandem","title":"tandem","count":90},{"id":"wife","title":"wife","count":15},{"id":"son","title":"son","count":2},{"id":"grocery store","title":"grocery store","count":10},{"id":"just for fun","title":"just for fun","count":2},{"id":"Los Angeles","title":"Los Angeles","count":6},{"id":"school","title":"school","count":52},{"id":"horse camp","title":"horse camp","count":2},{"id":"yasha's heaven","title":"yasha's heaven","count":1},{"id":"seattle","title":"seattle","count":14},{"id":"walk","title":"walk","count":1},{"id":"office C","title":"office C","count":9},{"id":"with the kid","title":"with the kid","count":6},{"id":"ToTheEastCoast","title":"ToTheEastCoast","count":38}],"tracks":[[{"lng":-122.02789879,"lat":37.30218692,"tm":1612725645000,"pathType":"line"},{"lng":-122.02707668,"lat":37.30096849,"tm":1612725708000,"pathType":"line"},{"lng":-122.02490401,"lat":37.30108087,"tm":1612725771000,"pathType":"line"},{"lng":-122.02214571,"lat":37.30106388,"tm":1612725835000,"pathType":"line"},{"lng":-122.01855095,"lat":37.30107973,"tm":1612725902000,"pathType":"line"},{"lng":-122.01544088,"lat":37.30128032,"tm":1612725967000,"pathType":"line"},{"lng":-122.01490841,"lat":37.30137774,"tm":1612726030000,"pathType":"line"},{"lng":-122.01498937,"lat":37.30322196,"tm":1612726091000,"pathType":"line"},{"lng":-122.01506662,"lat":37.30500903,"tm":1612726151000,"pathType":"line"},{"lng":-122.01468492,"lat":37.30694433,"tm":1612726211000,"pathType":"line"},{"lng":-122.01388883,"lat":37.30906085,"tm":1612726276000,"pathType":"line"},{"lng":-122.01265547,"lat":37.30991265,"tm":1612726337000,"pathType":"line"},{"lng":-122.0124285,"lat":37.30943158,"tm":1612726523000,"pathType":"line"},{"lng":-122.01216238,"lat":37.30932983,"tm":1612726583000,"pathType":"line"},{"lng":-122.01175209,"lat":37.3097871,"tm":1612726767000,"pathType":"line"},{"lng":-122.0119925,"lat":37.30946182,"tm":1612726832000,"pathType":"line"},{"lng":-122.01166902,"lat":37.30984192,"tm":1612726962000,"pathType":"line"},{"lng":-122.01151435,"lat":37.30957314,"tm":1612727117000,"pathType":"line"},{"lng":-122.01175505,"lat":37.30958527,"tm":1612727542000,"pathType":"line"},{"lng":-122.01195563,"lat":37.30943879,"tm":1612727664000,"pathType":"line"},{"lng":-122.01193481,"lat":37.30968182,"tm":1612728095000,"pathType":"line"}],[{"lng":-122.01216634,"lat":37.30937028,"tm":1612729056000,"pathType":"line"},{"lng":-122.01352681,"lat":37.30909943,"tm":1612729554000,"pathType":"line"},{"lng":-122.01415201,"lat":37.30851313,"tm":1612729622000,"pathType":"line"},{"lng":-122.01457889,"lat":37.30673398,"tm":1612729688000,"pathType":"line"},{"lng":-122.01493081,"lat":37.3050779,"tm":1612729751000,"pathType":"line"},{"lng":-122.01509939,"lat":37.3035266,"tm":1612729811000,"pathType":"line"},{"lng":-122.01516783,"lat":37.30268611,"tm":1612729874000,"pathType":"line"},{"lng":-122.01553698,"lat":37.30128116,"tm":1612729938000,"pathType":"line"},{"lng":-122.01799177,"lat":37.30129508,"tm":1612730000000,"pathType":"line"},{"lng":-122.02044636,"lat":37.30124182,"tm":1612730063000,"pathType":"line"},{"lng":-122.02300192,"lat":37.30111872,"tm":1612730132000,"pathType":"line"},{"lng":-122.0253189,"lat":37.30130758,"tm":1612730196000,"pathType":"line"},{"lng":-122.0274079,"lat":37.30097151,"tm":1612730260000,"pathType":"line"},{"lng":-122.0275978,"lat":37.302296,"tm":1612730320000,"pathType":"line"},{"lng":-122.02962491,"lat":37.30229567,"tm":1612730381000,"pathType":"line"}],[{"lng":-122.02542065,"lat":37.30179412,"tm":1612744661000,"pathType":"line"},{"lng":-122.0260782,"lat":37.30180799,"tm":1612744726000,"pathType":"line"},{"lng":-122.02711474,"lat":37.30069345,"tm":1612744790000,"pathType":"line"},{"lng":-122.02832544,"lat":37.30218149,"tm":1612744853000,"pathType":"line"}]],"objects":[],"title":"Daily ride 2021-02-07","description":"","trackId":"20210207","distance":5.8,"time":"1:6","uphill":95},"__N_SSG":true}