{"pageProps":{"categories":[{"id":"all","title":"All","count":1243},{"id":"with-pictures","title":"With pictures or videos","count":53},{"id":"office A","title":"office A","count":18},{"id":"miyata","title":"miyata","count":17},{"id":"office B","title":"office B","count":32},{"id":"recumbent","title":"recumbent","count":122},{"id":"tandem","title":"tandem","count":90},{"id":"wife","title":"wife","count":15},{"id":"son","title":"son","count":2},{"id":"grocery store","title":"grocery store","count":10},{"id":"just for fun","title":"just for fun","count":2},{"id":"Los Angeles","title":"Los Angeles","count":6},{"id":"school","title":"school","count":52},{"id":"horse camp","title":"horse camp","count":2},{"id":"yasha's heaven","title":"yasha's heaven","count":1},{"id":"seattle","title":"seattle","count":14},{"id":"walk","title":"walk","count":1},{"id":"office C","title":"office C","count":9},{"id":"with the kid","title":"with the kid","count":6},{"id":"ToTheEastCoast","title":"ToTheEastCoast","count":38}],"tracks":[[{"lng":-122.03168989,"lat":37.30201408,"tm":1626986105000,"pathType":"line"},{"lng":-122.03208067,"lat":37.30431904,"tm":1626986165000,"pathType":"line"},{"lng":-122.03210788,"lat":37.30756516,"tm":1626986226000,"pathType":"line"},{"lng":-122.03210086,"lat":37.31068361,"tm":1626986287000,"pathType":"line"},{"lng":-122.03210156,"lat":37.31356882,"tm":1626986348000,"pathType":"line"},{"lng":-122.03206514,"lat":37.31616467,"tm":1626986409000,"pathType":"line"},{"lng":-122.03238016,"lat":37.31594899,"tm":1626986470000,"pathType":"line"},{"lng":-122.03505578,"lat":37.31564353,"tm":1626986530000,"pathType":"line"},{"lng":-122.03790855,"lat":37.31567436,"tm":1626986590000,"pathType":"line"},{"lng":-122.04051246,"lat":37.31562517,"tm":1626986650000,"pathType":"line"},{"lng":-122.04148917,"lat":37.3156818,"tm":1626986711000,"pathType":"line"},{"lng":-122.04463201,"lat":37.31566838,"tm":1626986772000,"pathType":"line"},{"lng":-122.0471419,"lat":37.31566237,"tm":1626986832000,"pathType":"line"},{"lng":-122.04959637,"lat":37.3156418,"tm":1626986893000,"pathType":"line"},{"lng":-122.05083201,"lat":37.31674532,"tm":1626986954000,"pathType":"line"},{"lng":-122.05204994,"lat":37.3171327,"tm":1626987015000,"pathType":"line"},{"lng":-122.05192908,"lat":37.31755985,"tm":1626987169000,"pathType":"line"}],[{"lng":-122.05133494,"lat":37.31686314,"tm":1626999890000,"pathType":"line"},{"lng":-122.05009139,"lat":37.31551137,"tm":1626999951000,"pathType":"line"},{"lng":-122.04598102,"lat":37.3155626,"tm":1627000014000,"pathType":"line"},{"lng":-122.04138848,"lat":37.31554263,"tm":1627000075000,"pathType":"line"},{"lng":-122.03680943,"lat":37.31560865,"tm":1627000136000,"pathType":"line"},{"lng":-122.03247313,"lat":37.31512139,"tm":1627000197000,"pathType":"line"},{"lng":-122.03246599,"lat":37.3122337,"tm":1627000257000,"pathType":"line"},{"lng":-122.03244914,"lat":37.30944222,"tm":1627000318000,"pathType":"line"},{"lng":-122.0324637,"lat":37.30815146,"tm":1627000378000,"pathType":"line"},{"lng":-122.03224982,"lat":37.30824048,"tm":1627000439000,"pathType":"line"},{"lng":-122.02960705,"lat":37.3074099,"tm":1627000499000,"pathType":"line"},{"lng":-122.0296388,"lat":37.30488781,"tm":1627000560000,"pathType":"line"},{"lng":-122.02961751,"lat":37.3025177,"tm":1627000621000,"pathType":"line"}]],"objects":[],"title":"Daily ride 2021-07-22","description":"","trackId":"20210722","distance":6.9,"time":"0:30","uphill":0},"__N_SSG":true}