{"pageProps":{"categories":[{"id":"all","title":"All","count":1243},{"id":"with-pictures","title":"With pictures or videos","count":53},{"id":"office A","title":"office A","count":18},{"id":"miyata","title":"miyata","count":17},{"id":"office B","title":"office B","count":32},{"id":"recumbent","title":"recumbent","count":122},{"id":"tandem","title":"tandem","count":90},{"id":"wife","title":"wife","count":15},{"id":"son","title":"son","count":2},{"id":"grocery store","title":"grocery store","count":10},{"id":"just for fun","title":"just for fun","count":2},{"id":"Los Angeles","title":"Los Angeles","count":6},{"id":"school","title":"school","count":52},{"id":"horse camp","title":"horse camp","count":2},{"id":"yasha's heaven","title":"yasha's heaven","count":1},{"id":"seattle","title":"seattle","count":14},{"id":"walk","title":"walk","count":1},{"id":"office C","title":"office C","count":9},{"id":"with the kid","title":"with the kid","count":6},{"id":"ToTheEastCoast","title":"ToTheEastCoast","count":38}],"tracks":[[{"lng":-122.03121155,"lat":37.30208479,"tm":1628710469000,"pathType":"line"},{"lng":-122.03225842,"lat":37.30365206,"tm":1628710534000,"pathType":"line"},{"lng":-122.03210575,"lat":37.30644921,"tm":1628710597000,"pathType":"line"},{"lng":-122.03214983,"lat":37.31006314,"tm":1628710659000,"pathType":"line"},{"lng":-122.03212586,"lat":37.31214196,"tm":1628710719000,"pathType":"line"},{"lng":-122.0321432,"lat":37.31351062,"tm":1628710779000,"pathType":"line"},{"lng":-122.03210933,"lat":37.31616769,"tm":1628710840000,"pathType":"line"},{"lng":-122.03263129,"lat":37.31581341,"tm":1628710901000,"pathType":"line"},{"lng":-122.0352057,"lat":37.31566236,"tm":1628710961000,"pathType":"line"},{"lng":-122.03774425,"lat":37.31566271,"tm":1628711022000,"pathType":"line"},{"lng":-122.04023919,"lat":37.31565814,"tm":1628711083000,"pathType":"line"},{"lng":-122.04165621,"lat":37.31568146,"tm":1628711144000,"pathType":"line"},{"lng":-122.04433101,"lat":37.31568113,"tm":1628711204000,"pathType":"line"},{"lng":-122.04679196,"lat":37.31564939,"tm":1628711265000,"pathType":"line"},{"lng":-122.04921291,"lat":37.31565314,"tm":1628711326000,"pathType":"line"},{"lng":-122.05036364,"lat":37.31643678,"tm":1628711387000,"pathType":"line"},{"lng":-122.05201974,"lat":37.31717375,"tm":1628711448000,"pathType":"line"},{"lng":-122.0520514,"lat":37.31771004,"tm":1628711625000,"pathType":"line"}],[{"lng":-122.05061068,"lat":37.31561254,"tm":1628730059000,"pathType":"line"},{"lng":-122.04732062,"lat":37.31552498,"tm":1628730120000,"pathType":"line"},{"lng":-122.0422969,"lat":37.31557675,"tm":1628730184000,"pathType":"line"},{"lng":-122.04132357,"lat":37.31554912,"tm":1628730244000,"pathType":"line"},{"lng":-122.03718878,"lat":37.31556469,"tm":1628730304000,"pathType":"line"},{"lng":-122.03282731,"lat":37.31559059,"tm":1628730365000,"pathType":"line"},{"lng":-122.03241881,"lat":37.31300885,"tm":1628730425000,"pathType":"line"},{"lng":-122.03243294,"lat":37.31020842,"tm":1628730486000,"pathType":"line"},{"lng":-122.03242472,"lat":37.30811869,"tm":1628730546000,"pathType":"line"},{"lng":-122.0312898,"lat":37.3083412,"tm":1628730607000,"pathType":"line"},{"lng":-122.02957941,"lat":37.3067264,"tm":1628730668000,"pathType":"line"},{"lng":-122.02966932,"lat":37.30429358,"tm":1628730729000,"pathType":"line"}]],"objects":[],"title":"Daily ride 2021-08-11","description":"","trackId":"20210811","distance":6.8,"time":"0:30","uphill":8},"__N_SSG":true}