{"pageProps":{"categories":[{"id":"all","title":"All","count":1243},{"id":"with-pictures","title":"With pictures or videos","count":53},{"id":"office A","title":"office A","count":18},{"id":"miyata","title":"miyata","count":17},{"id":"office B","title":"office B","count":32},{"id":"recumbent","title":"recumbent","count":122},{"id":"tandem","title":"tandem","count":90},{"id":"wife","title":"wife","count":15},{"id":"son","title":"son","count":2},{"id":"grocery store","title":"grocery store","count":10},{"id":"just for fun","title":"just for fun","count":2},{"id":"Los Angeles","title":"Los Angeles","count":6},{"id":"school","title":"school","count":52},{"id":"horse camp","title":"horse camp","count":2},{"id":"yasha's heaven","title":"yasha's heaven","count":1},{"id":"seattle","title":"seattle","count":14},{"id":"walk","title":"walk","count":1},{"id":"office C","title":"office C","count":9},{"id":"with the kid","title":"with the kid","count":6},{"id":"ToTheEastCoast","title":"ToTheEastCoast","count":38}],"tracks":[[{"lng":-122.03139243,"lat":37.3019551,"tm":1624896441000,"pathType":"line"},{"lng":-122.03117517,"lat":37.30202145,"tm":1624896563000,"pathType":"line"},{"lng":-122.03212304,"lat":37.30280612,"tm":1624896624000,"pathType":"line"},{"lng":-122.03220669,"lat":37.30625323,"tm":1624896689000,"pathType":"line"},{"lng":-122.03188712,"lat":37.30953066,"tm":1624896751000,"pathType":"line"},{"lng":-122.03206963,"lat":37.31258252,"tm":1624896811000,"pathType":"line"},{"lng":-122.03215636,"lat":37.31625461,"tm":1624896904000,"pathType":"line"},{"lng":-122.0351679,"lat":37.31561965,"tm":1624896964000,"pathType":"line"},{"lng":-122.03806091,"lat":37.31560269,"tm":1624897025000,"pathType":"line"},{"lng":-122.04083026,"lat":37.31563289,"tm":1624897085000,"pathType":"line"},{"lng":-122.04113077,"lat":37.31560569,"tm":1624897146000,"pathType":"line"},{"lng":-122.04411024,"lat":37.31564362,"tm":1624897206000,"pathType":"line"},{"lng":-122.04688396,"lat":37.31562941,"tm":1624897267000,"pathType":"line"},{"lng":-122.04936818,"lat":37.31562525,"tm":1624897328000,"pathType":"line"},{"lng":-122.05059457,"lat":37.31659746,"tm":1624897389000,"pathType":"line"},{"lng":-122.05245797,"lat":37.31717953,"tm":1624897505000,"pathType":"line"},{"lng":-122.05236909,"lat":37.31753393,"tm":1624897566000,"pathType":"line"},{"lng":-122.05240816,"lat":37.3172807,"tm":1624897628000,"pathType":"line"},{"lng":-122.05180034,"lat":37.31744677,"tm":1624897688000,"pathType":"line"},{"lng":-122.05198701,"lat":37.3171136,"tm":1624897797000,"pathType":"line"},{"lng":-122.05048551,"lat":37.31573706,"tm":1624897858000,"pathType":"line"},{"lng":-122.04769406,"lat":37.31553856,"tm":1624897918000,"pathType":"line"},{"lng":-122.04302955,"lat":37.31555605,"tm":1624897979000,"pathType":"line"},{"lng":-122.03850703,"lat":37.31559876,"tm":1624898039000,"pathType":"line"},{"lng":-122.03403843,"lat":37.31561854,"tm":1624898099000,"pathType":"line"},{"lng":-122.03244519,"lat":37.31383854,"tm":1624898160000,"pathType":"line"},{"lng":-122.03241751,"lat":37.31118918,"tm":1624898221000,"pathType":"line"},{"lng":-122.03243045,"lat":37.30854079,"tm":1624898282000,"pathType":"line"},{"lng":-122.03243307,"lat":37.30817547,"tm":1624898343000,"pathType":"line"},{"lng":-122.03157597,"lat":37.30833334,"tm":1624898463000,"pathType":"line"},{"lng":-122.02959372,"lat":37.30701708,"tm":1624898524000,"pathType":"line"},{"lng":-122.02961938,"lat":37.30461886,"tm":1624898585000,"pathType":"line"},{"lng":-122.02960128,"lat":37.3024764,"tm":1624898646000,"pathType":"line"}]],"objects":[],"title":"Daily ride 2021-06-28","description":"","trackId":"20210628","distance":7,"time":"0:37","uphill":76},"__N_SSG":true}