{"pageProps":{"categories":[{"id":"all","title":"All","count":1243},{"id":"with-pictures","title":"With pictures or videos","count":53},{"id":"office A","title":"office A","count":18},{"id":"miyata","title":"miyata","count":17},{"id":"office B","title":"office B","count":32},{"id":"recumbent","title":"recumbent","count":122},{"id":"tandem","title":"tandem","count":90},{"id":"wife","title":"wife","count":15},{"id":"son","title":"son","count":2},{"id":"grocery store","title":"grocery store","count":10},{"id":"just for fun","title":"just for fun","count":2},{"id":"Los Angeles","title":"Los Angeles","count":6},{"id":"school","title":"school","count":52},{"id":"horse camp","title":"horse camp","count":2},{"id":"yasha's heaven","title":"yasha's heaven","count":1},{"id":"seattle","title":"seattle","count":14},{"id":"walk","title":"walk","count":1},{"id":"office C","title":"office C","count":9},{"id":"with the kid","title":"with the kid","count":6},{"id":"ToTheEastCoast","title":"ToTheEastCoast","count":38}],"tracks":[[{"lng":-121.98553439763491,"lat":37.324353843681294,"tm":1658717378000,"pathType":"line"},{"lng":-121.99091210471664,"lat":37.3232209324219,"tm":1658717487000,"pathType":"line"},{"lng":-121.9962055067601,"lat":37.32323100440882,"tm":1658717598000,"pathType":"line"},{"lng":-122.0007862041613,"lat":37.32316436018785,"tm":1658717713000,"pathType":"line"},{"lng":-122.00809059225539,"lat":37.323129944637145,"tm":1658717822000,"pathType":"line"},{"lng":-122.01437811567719,"lat":37.323023750116256,"tm":1658717931000,"pathType":"line"},{"lng":-122.0145826224534,"lat":37.322851507136996,"tm":1658718037000,"pathType":"line"},{"lng":-122.01356640274898,"lat":37.316575147847495,"tm":1658718147000,"pathType":"line"},{"lng":-122.0136406301094,"lat":37.31129304340745,"tm":1658718256000,"pathType":"line"},{"lng":-122.0185100600126,"lat":37.310206895276615,"tm":1658718364000,"pathType":"line"},{"lng":-122.01804846240097,"lat":37.309041860758306,"tm":1658718473000,"pathType":"line"},{"lng":-122.01970225591063,"lat":37.30814823096928,"tm":1658718583000,"pathType":"line"},{"lng":-122.01533928361917,"lat":37.31020077205208,"tm":1658719004000,"pathType":"line"},{"lng":-122.01330880220804,"lat":37.31438964367858,"tm":1658719113000,"pathType":"line"},{"lng":-122.0148228694135,"lat":37.31674709257494,"tm":1658719222000,"pathType":"line"},{"lng":-122.01367454531311,"lat":37.311865202556355,"tm":1658719438000,"pathType":"line"},{"lng":-122.01474609897927,"lat":37.30732074812082,"tm":1658719546000,"pathType":"line"},{"lng":-122.01501195810366,"lat":37.30207962227813,"tm":1658719654000,"pathType":"line"},{"lng":-122.0104520871144,"lat":37.30095492234348,"tm":1658719763000,"pathType":"line"},{"lng":-122.00725498026692,"lat":37.30012556926407,"tm":1658719874000,"pathType":"line"},{"lng":-122.00759862411927,"lat":37.30049087147439,"tm":1658719982000,"pathType":"line"},{"lng":-122.00720047451344,"lat":37.300559053294926,"tm":1658720091000,"pathType":"line"},{"lng":-122.0074733255577,"lat":37.30041335931735,"tm":1658720199000,"pathType":"line"},{"lng":-122.00763699391608,"lat":37.3005531837893,"tm":1658720629000,"pathType":"line"}],[{"lng":-122.00736230050076,"lat":37.300484907402286,"tm":1658721492000,"pathType":"line"},{"lng":-122.00549965579908,"lat":37.303513922958736,"tm":1658721601000,"pathType":"line"},{"lng":-122.00375256512508,"lat":37.308248589601156,"tm":1658721710000,"pathType":"line"},{"lng":-121.99948681894574,"lat":37.30984370507965,"tm":1658721817000,"pathType":"line"},{"lng":-121.99584484148254,"lat":37.30962784575988,"tm":1658721926000,"pathType":"line"},{"lng":-121.99556961285153,"lat":37.314645553888596,"tm":1658722035000,"pathType":"line"},{"lng":-121.99543578163335,"lat":37.31956974448463,"tm":1658722144000,"pathType":"line"},{"lng":-121.99433947233456,"lat":37.32292519630547,"tm":1658722252000,"pathType":"line"},{"lng":-121.98775101817334,"lat":37.32300329133023,"tm":1658722360000,"pathType":"line"},{"lng":-121.98352919870419,"lat":37.324338368755434,"tm":1658722469000,"pathType":"line"}]],"objects":[],"title":"Daily ride 2022-07-24","description":"","trackId":"20220724","distance":12.6,"time":"1:10","uphill":45},"__N_SSG":true}