{"pageProps":{"categories":[{"id":"all","title":"All","count":1243},{"id":"with-pictures","title":"With pictures or videos","count":53},{"id":"office A","title":"office A","count":18},{"id":"miyata","title":"miyata","count":17},{"id":"office B","title":"office B","count":32},{"id":"recumbent","title":"recumbent","count":122},{"id":"tandem","title":"tandem","count":90},{"id":"wife","title":"wife","count":15},{"id":"son","title":"son","count":2},{"id":"grocery store","title":"grocery store","count":10},{"id":"just for fun","title":"just for fun","count":2},{"id":"Los Angeles","title":"Los Angeles","count":6},{"id":"school","title":"school","count":52},{"id":"horse camp","title":"horse camp","count":2},{"id":"yasha's heaven","title":"yasha's heaven","count":1},{"id":"seattle","title":"seattle","count":14},{"id":"walk","title":"walk","count":1},{"id":"office C","title":"office C","count":9},{"id":"with the kid","title":"with the kid","count":6},{"id":"ToTheEastCoast","title":"ToTheEastCoast","count":38}],"tracks":[[{"lng":-121.97829133,"lat":37.32668863,"tm":1644687448000,"pathType":"line"},{"lng":-121.97473955,"lat":37.32696718,"tm":1644687509000,"pathType":"line"},{"lng":-121.9738746,"lat":37.33001344,"tm":1644687569000,"pathType":"line"},{"lng":-121.96888697,"lat":37.32987402,"tm":1644687630000,"pathType":"line"},{"lng":-121.96677703,"lat":37.32754502,"tm":1644687690000,"pathType":"line"},{"lng":-121.96448293,"lat":37.32498875,"tm":1644687751000,"pathType":"line"},{"lng":-121.96424322,"lat":37.32182316,"tm":1644687812000,"pathType":"line"},{"lng":-121.96416862,"lat":37.31871287,"tm":1644687873000,"pathType":"line"},{"lng":-121.96424392,"lat":37.31589226,"tm":1644687934000,"pathType":"line"},{"lng":-121.96266572,"lat":37.31595754,"tm":1644687994000,"pathType":"line"},{"lng":-121.95822376,"lat":37.31605976,"tm":1644688054000,"pathType":"line"},{"lng":-121.95381029,"lat":37.31611021,"tm":1644688115000,"pathType":"line"},{"lng":-121.9501281,"lat":37.31599125,"tm":1644688175000,"pathType":"line"},{"lng":-121.94988862,"lat":37.31451178,"tm":1644688235000,"pathType":"line"},{"lng":-121.94974277,"lat":37.31469112,"tm":1644688296000,"pathType":"line"},{"lng":-121.95003786,"lat":37.31500978,"tm":1644688514000,"pathType":"line"},{"lng":-121.9499578,"lat":37.31613875,"tm":1644688576000,"pathType":"line"},{"lng":-121.95125016,"lat":37.31622339,"tm":1644688698000,"pathType":"line"},{"lng":-121.95494801,"lat":37.31616216,"tm":1644688759000,"pathType":"line"},{"lng":-121.95881907,"lat":37.31613958,"tm":1644688819000,"pathType":"line"},{"lng":-121.96269658,"lat":37.31615876,"tm":1644688879000,"pathType":"line"},{"lng":-121.963822,"lat":37.31878687,"tm":1644688940000,"pathType":"line"},{"lng":-121.96389833,"lat":37.32231983,"tm":1644689000000,"pathType":"line"},{"lng":-121.96513759,"lat":37.32681119,"tm":1644689061000,"pathType":"line"},{"lng":-121.96747944,"lat":37.32979903,"tm":1644689121000,"pathType":"line"},{"lng":-121.96748623,"lat":37.33003053,"tm":1644689181000,"pathType":"line"},{"lng":-121.96981304,"lat":37.33003515,"tm":1644689241000,"pathType":"line"},{"lng":-121.97383592,"lat":37.33015912,"tm":1644689302000,"pathType":"line"},{"lng":-121.97492896,"lat":37.32914075,"tm":1644689363000,"pathType":"line"},{"lng":-121.97576717,"lat":37.326767,"tm":1644689424000,"pathType":"line"},{"lng":-121.97931293,"lat":37.32685921,"tm":1644689485000,"pathType":"line"}]],"objects":[],"title":"Daily ride 2022-02-12","description":"","trackId":"20220212","distance":8.5,"time":"0:34","uphill":0},"__N_SSG":true}