{"pageProps":{"categories":[{"id":"all","title":"All","count":1243},{"id":"with-pictures","title":"With pictures or videos","count":53},{"id":"office A","title":"office A","count":18},{"id":"miyata","title":"miyata","count":17},{"id":"office B","title":"office B","count":32},{"id":"recumbent","title":"recumbent","count":122},{"id":"tandem","title":"tandem","count":90},{"id":"wife","title":"wife","count":15},{"id":"son","title":"son","count":2},{"id":"grocery store","title":"grocery store","count":10},{"id":"just for fun","title":"just for fun","count":2},{"id":"Los Angeles","title":"Los Angeles","count":6},{"id":"school","title":"school","count":52},{"id":"horse camp","title":"horse camp","count":2},{"id":"yasha's heaven","title":"yasha's heaven","count":1},{"id":"seattle","title":"seattle","count":14},{"id":"walk","title":"walk","count":1},{"id":"office C","title":"office C","count":9},{"id":"with the kid","title":"with the kid","count":6},{"id":"ToTheEastCoast","title":"ToTheEastCoast","count":38}],"tracks":[[{"lng":-121.9835965,"lat":37.32467925,"tm":1641150655000,"pathType":"line"},{"lng":-121.98682512,"lat":37.32446262,"tm":1641150715000,"pathType":"line"},{"lng":-121.99020961,"lat":37.32445703,"tm":1641150785000,"pathType":"line"},{"lng":-121.99195319,"lat":37.3232376,"tm":1641150848000,"pathType":"line"},{"lng":-121.99331826,"lat":37.32365767,"tm":1641150909000,"pathType":"line"},{"lng":-121.99575904,"lat":37.32305045,"tm":1641150971000,"pathType":"line"},{"lng":-121.99631667,"lat":37.32335052,"tm":1641151031000,"pathType":"line"},{"lng":-122.00060192,"lat":37.32346931,"tm":1641151099000,"pathType":"line"},{"lng":-122.00370009,"lat":37.32351213,"tm":1641151160000,"pathType":"line"},{"lng":-122.0070224,"lat":37.32359584,"tm":1641151220000,"pathType":"line"},{"lng":-122.01054313,"lat":37.32348141,"tm":1641151284000,"pathType":"line"},{"lng":-122.01405548,"lat":37.32337915,"tm":1641151348000,"pathType":"line"},{"lng":-122.01416889,"lat":37.3217003,"tm":1641151412000,"pathType":"line"},{"lng":-122.01354514,"lat":37.31898911,"tm":1641151477000,"pathType":"line"},{"lng":-122.01343219,"lat":37.31681038,"tm":1641151538000,"pathType":"line"},{"lng":-122.01336657,"lat":37.3142623,"tm":1641151603000,"pathType":"line"},{"lng":-122.01350463,"lat":37.3117009,"tm":1641151667000,"pathType":"line"},{"lng":-122.01602346,"lat":37.31065867,"tm":1641151730000,"pathType":"line"},{"lng":-122.01776021,"lat":37.31001591,"tm":1641151794000,"pathType":"line"},{"lng":-122.01930103,"lat":37.30842563,"tm":1641151858000,"pathType":"line"},{"lng":-122.01979866,"lat":37.30844598,"tm":1641151926000,"pathType":"line"},{"lng":-122.01901915,"lat":37.30802767,"tm":1641152111000,"pathType":"line"},{"lng":-122.01774656,"lat":37.31006969,"tm":1641152176000,"pathType":"line"},{"lng":-122.01436141,"lat":37.31059808,"tm":1641152240000,"pathType":"line"},{"lng":-122.01304698,"lat":37.3103075,"tm":1641152307000,"pathType":"line"},{"lng":-122.0131462,"lat":37.31231047,"tm":1641152372000,"pathType":"line"},{"lng":-122.01298939,"lat":37.31522282,"tm":1641152432000,"pathType":"line"},{"lng":-122.0129484,"lat":37.31778946,"tm":1641152493000,"pathType":"line"},{"lng":-122.01363457,"lat":37.31988038,"tm":1641152557000,"pathType":"line"},{"lng":-122.01388793,"lat":37.32216871,"tm":1641152618000,"pathType":"line"},{"lng":-122.01142385,"lat":37.32316411,"tm":1641152682000,"pathType":"line"},{"lng":-122.00821914,"lat":37.32314238,"tm":1641152746000,"pathType":"line"},{"lng":-122.00424525,"lat":37.32333951,"tm":1641152811000,"pathType":"line"},{"lng":-122.00121545,"lat":37.3234148,"tm":1641152875000,"pathType":"line"},{"lng":-121.99908629,"lat":37.32273563,"tm":1641152944000,"pathType":"line"},{"lng":-121.99493268,"lat":37.3229315,"tm":1641153007000,"pathType":"line"},{"lng":-121.99358459,"lat":37.32318291,"tm":1641153072000,"pathType":"line"},{"lng":-121.98965131,"lat":37.3232564,"tm":1641153137000,"pathType":"line"},{"lng":-121.98724156,"lat":37.32323641,"tm":1641153201000,"pathType":"line"},{"lng":-121.98569636,"lat":37.32441147,"tm":1641153262000,"pathType":"line"},{"lng":-121.9826086,"lat":37.32441378,"tm":1641153323000,"pathType":"line"}]],"objects":[],"title":"Daily ride 2022-01-02","description":"","trackId":"20220102","distance":9.7,"time":"0:44","uphill":164},"__N_SSG":true}