{"pageProps":{"categories":[{"id":"all","title":"All","count":1243},{"id":"with-pictures","title":"With pictures or videos","count":53},{"id":"office A","title":"office A","count":18},{"id":"miyata","title":"miyata","count":17},{"id":"office B","title":"office B","count":32},{"id":"recumbent","title":"recumbent","count":122},{"id":"tandem","title":"tandem","count":90},{"id":"wife","title":"wife","count":15},{"id":"son","title":"son","count":2},{"id":"grocery store","title":"grocery store","count":10},{"id":"just for fun","title":"just for fun","count":2},{"id":"Los Angeles","title":"Los Angeles","count":6},{"id":"school","title":"school","count":52},{"id":"horse camp","title":"horse camp","count":2},{"id":"yasha's heaven","title":"yasha's heaven","count":1},{"id":"seattle","title":"seattle","count":14},{"id":"walk","title":"walk","count":1},{"id":"office C","title":"office C","count":9},{"id":"with the kid","title":"with the kid","count":6},{"id":"ToTheEastCoast","title":"ToTheEastCoast","count":38}],"tracks":[[{"lng":-121.98359304035776,"lat":37.32443770812817,"tm":1724804535000,"pathType":"line"},{"lng":-121.98704923015872,"lat":37.32442221382748,"tm":1724804599000,"pathType":"line"},{"lng":-121.99052756603453,"lat":37.324025535393325,"tm":1724804662000,"pathType":"line"},{"lng":-121.99301547692812,"lat":37.323207139890776,"tm":1724804726000,"pathType":"line"},{"lng":-121.99519718419864,"lat":37.323145046719446,"tm":1724804789000,"pathType":"line"},{"lng":-121.9978878819128,"lat":37.32319004146899,"tm":1724804852000,"pathType":"line"},{"lng":-122.00164149323068,"lat":37.323064486592905,"tm":1724804917000,"pathType":"line"},{"lng":-122.00555701158466,"lat":37.323187553660695,"tm":1724804981000,"pathType":"line"},{"lng":-122.00653278827667,"lat":37.322065114974976,"tm":1724805035000,"pathType":"line"},{"lng":-122.00653326541627,"lat":37.31903744110354,"tm":1724805106000,"pathType":"line"},{"lng":-122.00716649083944,"lat":37.316372695427326,"tm":1724805169000,"pathType":"line"},{"lng":-122.00813306312159,"lat":37.31409202148009,"tm":1724805230000,"pathType":"line"},{"lng":-122.01046367922858,"lat":37.31332548669444,"tm":1724805290000,"pathType":"line"},{"lng":-122.01078561827096,"lat":37.31197062872158,"tm":1724805354000,"pathType":"line"},{"lng":-122.01057855509497,"lat":37.312082829068636,"tm":1724805478000,"pathType":"line"},{"lng":-122.01048999234506,"lat":37.3112411714591,"tm":1724805541000,"pathType":"line"},{"lng":-122.01033116875284,"lat":37.31247787931848,"tm":1724805664000,"pathType":"line"},{"lng":-122.0083283457394,"lat":37.31405083786718,"tm":1724805728000,"pathType":"line"},{"lng":-122.00718404987074,"lat":37.31631104847695,"tm":1724805791000,"pathType":"line"},{"lng":-122.00643684270207,"lat":37.31917823531628,"tm":1724805855000,"pathType":"line"},{"lng":-122.00654901693903,"lat":37.32192901306084,"tm":1724805918000,"pathType":"line"},{"lng":-122.00587369616052,"lat":37.32292119915754,"tm":1724805981000,"pathType":"line"},{"lng":-122.0035459686258,"lat":37.32286717623725,"tm":1724806045000,"pathType":"line"},{"lng":-122.00194268281035,"lat":37.322901125756864,"tm":1724806111000,"pathType":"line"},{"lng":-122.00137632067573,"lat":37.32295177511794,"tm":1724806174000,"pathType":"line"},{"lng":-121.99992464657315,"lat":37.32290109917973,"tm":1724806241000,"pathType":"line"},{"lng":-121.99640731658873,"lat":37.322974873977344,"tm":1724806304000,"pathType":"line"},{"lng":-121.99468520451862,"lat":37.32301114462064,"tm":1724806368000,"pathType":"line"},{"lng":-121.99396499044289,"lat":37.32286849478251,"tm":1724806434000,"pathType":"line"}],[{"lng":-121.99419833746902,"lat":37.32285656692813,"tm":1724807220000,"pathType":"line"},{"lng":-121.99396495234953,"lat":37.32281466293432,"tm":1724807551000,"pathType":"line"},{"lng":-121.99177604818081,"lat":37.32291738887349,"tm":1724807678000,"pathType":"line"},{"lng":-121.98817241783519,"lat":37.32298449637496,"tm":1724807742000,"pathType":"line"},{"lng":-121.98745141317013,"lat":37.32432532446716,"tm":1724807805000,"pathType":"line"},{"lng":-121.98368383842285,"lat":37.32429727003701,"tm":1724807869000,"pathType":"line"}]],"objects":[],"title":"Daily ride 2024-08-27","description":"","trackId":"20240827","distance":7,"time":"0:42","uphill":0},"__N_SSG":true}