{"pageProps":{"categories":[{"id":"all","title":"All","count":569},{"id":"with-pictures","title":"With pictures or videos","count":49},{"id":"office A","title":"office A","count":18},{"id":"miyata","title":"miyata","count":17},{"id":"office B","title":"office B","count":32},{"id":"recumbent","title":"recumbent","count":122},{"id":"tandem","title":"tandem","count":86},{"id":"wife","title":"wife","count":14},{"id":"son","title":"son","count":2},{"id":"grocery store","title":"grocery store","count":10},{"id":"just for fun","title":"just for fun","count":2},{"id":"Los Angeles","title":"Los Angeles","count":6},{"id":"school","title":"school","count":52},{"id":"horse camp","title":"horse camp","count":2},{"id":"yasha's heaven","title":"yasha's heaven","count":1},{"id":"seattle","title":"seattle","count":14},{"id":"walk","title":"walk","count":1},{"id":"office C","title":"office C","count":9},{"id":"with the kid","title":"with the kid","count":4},{"id":"ToTheEastCoast","title":"ToTheEastCoast","count":38}],"tracks":[[{"lng":-121.98301720420906,"lat":37.32442778335127,"tm":1655227180000,"pathType":"line"},{"lng":-121.98849513093334,"lat":37.32424421109572,"tm":1655227288000,"pathType":"line"},{"lng":-121.99274835822092,"lat":37.32321770254708,"tm":1655227397000,"pathType":"line"},{"lng":-121.9971998423695,"lat":37.32311877992679,"tm":1655227506000,"pathType":"line"},{"lng":-122.00355889519209,"lat":37.323160035170815,"tm":1655227615000,"pathType":"line"},{"lng":-122.00921541513699,"lat":37.32318252783644,"tm":1655227723000,"pathType":"line"},{"lng":-122.0141707240811,"lat":37.32313427582567,"tm":1655227831000,"pathType":"line"},{"lng":-122.01947510390576,"lat":37.32304453174913,"tm":1655227941000,"pathType":"line"},{"lng":-122.02302201493639,"lat":37.323023929135374,"tm":1655228050000,"pathType":"line"},{"lng":-122.02868637672165,"lat":37.32305386510566,"tm":1655228158000,"pathType":"line"},{"lng":-122.0327545256206,"lat":37.323089868524875,"tm":1655228266000,"pathType":"line"},{"lng":-122.03744155240307,"lat":37.32306771346838,"tm":1655228374000,"pathType":"line"},{"lng":-122.04155033852304,"lat":37.323132461580926,"tm":1655228483000,"pathType":"line"},{"lng":-122.04596808636576,"lat":37.323058628839064,"tm":1655228594000,"pathType":"line"},{"lng":-122.04628032049087,"lat":37.323190475440086,"tm":1655228691000,"pathType":"line"},{"lng":-122.05180813677369,"lat":37.32279929793055,"tm":1655228799000,"pathType":"line"},{"lng":-122.0500929063315,"lat":37.31868087332808,"tm":1655228910000,"pathType":"line"},{"lng":-122.05097897772096,"lat":37.31690242288528,"tm":1655228990000,"pathType":"line"}]],"objects":[],"title":"Daily ride 2022-06-14","description":"","trackId":"20220614","distance":6.8,"time":"0:30","uphill":86},"__N_SSG":true}