{"pageProps":{"categories":[{"id":"all","title":"All","count":524},{"id":"office A","title":"office A","count":151},{"id":"miyata","title":"miyata","count":17},{"id":"school","title":"school","count":85},{"id":"tandem","title":"tandem","count":113},{"id":"recumbent","title":"recumbent","count":170},{"id":"office B","title":"office B","count":89},{"id":"wife","title":"wife","count":14},{"id":"office C","title":"office C","count":24},{"id":"son","title":"son","count":2},{"id":"grocery store","title":"grocery store","count":10},{"id":"just for fun","title":"just for fun","count":2},{"id":"Los Angeles","title":"Los Angeles","count":6},{"id":"horse camp","title":"horse camp","count":2},{"id":"yasha's heaven","title":"yasha's heaven","count":1},{"id":"seattle","title":"seattle","count":14},{"id":"walk","title":"walk","count":1},{"id":"with the kid","title":"with the kid","count":4}],"tracks":[],"objects":[{"type":"image","img":"20210525-photo0","lat":45.24970049,"lng":-122.8838175},{"type":"image","img":"20210525-photo1","lat":45.43516868,"lng":-122.65357962},{"type":"image","img":"20210525-photo10","lat":46.1030103,"lng":-122.96343004},{"type":"image","img":"20210525-photo2","lat":45.46442156,"lng":-122.66839541},{"type":"image","img":"20210525-photo3","lat":45.47909531,"lng":-122.67062843},{"type":"image","img":"20210525-photo4","lat":45.48634073,"lng":-122.67209531},{"type":"image","img":"20210525-photo5","lat":45.48634073,"lng":-122.67209531},{"type":"image","img":"20210525-photo6","lat":45.50204806,"lng":-122.67214441},{"type":"image","img":"20210525-photo7","lat":45.51572402,"lng":-122.6774336},{"type":"image","img":"20210525-photo8","lat":45.58101563,"lng":-122.7652316},{"type":"image","img":"20210525-photo9","lat":46.10112645,"lng":-122.96507687}],"title":"Daily ride 2021-05-25","description":"Day 11","trackId":"20210525","distance":0,"time":"NaN:NaN","uphill":0},"__N_SSG":true}