{"pageProps":{"siteDescription":"Description of local dev version","siteTitle":"Local dev version","currentPage":"113","categories":[{"id":"all","title":"All","count":556},{"id":"with-pictures","title":"With pictures or videos","count":41},{"id":"office A","title":"office A","count":18},{"id":"miyata","title":"miyata","count":17},{"id":"office B","title":"office B","count":32},{"id":"recumbent","title":"recumbent","count":108},{"id":"tandem","title":"tandem","count":86},{"id":"wife","title":"wife","count":14},{"id":"son","title":"son","count":2},{"id":"grocery store","title":"grocery store","count":10},{"id":"just for fun","title":"just for fun","count":2},{"id":"Los Angeles","title":"Los Angeles","count":6},{"id":"school","title":"school","count":52},{"id":"horse camp","title":"horse camp","count":2},{"id":"yasha's heaven","title":"yasha's heaven","count":1},{"id":"seattle","title":"seattle","count":14},{"id":"walk","title":"walk","count":1},{"id":"office C","title":"office C","count":9},{"id":"with the kid","title":"with the kid","count":4},{"id":"ToTheEastCost","title":"ToTheEastCost","count":24}],"pages":278,"category":"all","index":[{"title":"Daily ride 2021-05-19 #332","description":"Day 5. Uphill til 1800m, my personal record of altitude on a bike.","tags":["recumbent","seattle"],"gpx":["track.gpx"],"date":"2021-05-19","hash":["7889839d740560ffe06732acb70a19fc0a2d0a1cdeb94abacbc79b385e81e3d5"],"id":"20210519","objects":[{"type":"image","img":"20210519-photo0","lat":40.50463165,"lng":-121.83489495},{"type":"image","img":"20210519-photo1","lat":40.51817638,"lng":-121.68623009},{"type":"image","img":"20210519-photo10","lat":40.98861927,"lng":-121.51379804},{"type":"image","img":"20210519-photo11","lat":40.99696919,"lng":-121.49640902},{"type":"image","img":"20210519-photo12","lat":40.99696919,"lng":-121.49640902},{"type":"image","img":"20210519-photo2","lat":40.53227303,"lng":-121.62943512},{"type":"image","img":"20210519-photo3","lat":40.56005489,"lng":-121.57665377},{"type":"image","img":"20210519-photo4","lat":40.56131436,"lng":-121.5761863},{"type":"image","img":"20210519-photo5","lat":40.56237183,"lng":-121.57572686},{"type":"image","img":"20210519-photo6","lat":40.97245552,"lng":-121.56363366},{"type":"image","img":"20210519-photo7","lat":40.97245552,"lng":-121.56363366},{"type":"image","img":"20210519-photo8","lat":40.97245552,"lng":-121.56363366},{"type":"image","img":"20210519-photo9","lat":40.98080268,"lng":-121.54682239}],"time":41515000,"distance":117384.65206480635,"uphill":1093,"pointCount":632,"categories":["all","recumbent","seattle","with-pictures"]},{"title":"Daily ride 2021-05-18 #331","description":"Day 4. Tire corruption on a gravel road, uphill to 1km","tags":["recumbent","seattle"],"gpx":["track.gpx"],"date":"2021-05-18","hash":["71c10a3cf84cd7ea127b2125eb2ca227da10c108702fbda4ffd2170000266088"],"id":"20210518","objects":[{"type":"image","img":"20210518-photo0","lat":39.92752181,"lng":-122.19744308},{"type":"image","img":"20210518-photo1","lat":40.32373763,"lng":-122.06458669},{"type":"image","img":"20210518-photo2","lat":40.40477011,"lng":-121.99178789}],"time":40110000,"distance":93685.80922221683,"uphill":931,"pointCount":595,"categories":["all","recumbent","seattle","with-pictures"]}]},"__N_SSG":true}