{"pageProps":{"categories":[{"id":"all","title":"All","count":570},{"id":"with-pictures","title":"With pictures or videos","count":53},{"id":"office A","title":"office A","count":18},{"id":"miyata","title":"miyata","count":17},{"id":"office B","title":"office B","count":32},{"id":"recumbent","title":"recumbent","count":122},{"id":"tandem","title":"tandem","count":86},{"id":"wife","title":"wife","count":14},{"id":"son","title":"son","count":2},{"id":"grocery store","title":"grocery store","count":10},{"id":"just for fun","title":"just for fun","count":2},{"id":"Los Angeles","title":"Los Angeles","count":6},{"id":"school","title":"school","count":52},{"id":"horse camp","title":"horse camp","count":2},{"id":"yasha's heaven","title":"yasha's heaven","count":1},{"id":"seattle","title":"seattle","count":14},{"id":"walk","title":"walk","count":1},{"id":"office C","title":"office C","count":9},{"id":"with the kid","title":"with the kid","count":4},{"id":"ToTheEastCoast","title":"ToTheEastCoast","count":38}],"tracks":[[{"lng":-121.98382843154322,"lat":37.324377070521024,"tm":1655401183000,"pathType":"line"},{"lng":-121.98905371590725,"lat":37.3240670873434,"tm":1655401278000,"pathType":"line"},{"lng":-121.99419000659283,"lat":37.32322899407433,"tm":1655401387000,"pathType":"line"},{"lng":-121.99623394351237,"lat":37.32318391049713,"tm":1655401483000,"pathType":"line"},{"lng":-121.99668207215441,"lat":37.32320327549562,"tm":1655401591000,"pathType":"line"},{"lng":-122.0062829624457,"lat":37.32314784117301,"tm":1655401684000,"pathType":"line"},{"lng":-122.01039066737907,"lat":37.32312740481541,"tm":1655401792000,"pathType":"line"},{"lng":-122.01662404414812,"lat":37.32309171904246,"tm":1655401887000,"pathType":"line"},{"lng":-122.02380710219371,"lat":37.323094686277265,"tm":1655401995000,"pathType":"line"},{"lng":-122.02935534684903,"lat":37.323077433127835,"tm":1655402090000,"pathType":"line"},{"lng":-122.0356005631745,"lat":37.323093599004494,"tm":1655402198000,"pathType":"line"},{"lng":-122.04158052151271,"lat":37.32305113992087,"tm":1655402292000,"pathType":"line"},{"lng":-122.04564812218594,"lat":37.32299483385358,"tm":1655402370000,"pathType":"line"},{"lng":-122.04895282387676,"lat":37.32303138543226,"tm":1655402473000,"pathType":"line"},{"lng":-122.0523318892681,"lat":37.32251383905239,"tm":1655402582000,"pathType":"line"},{"lng":-122.04965689627225,"lat":37.317087818258805,"tm":1655402690000,"pathType":"line"},{"lng":-122.05192340582589,"lat":37.31723254870305,"tm":1655402815000,"pathType":"line"},{"lng":-122.0518571928567,"lat":37.31754162363626,"tm":1655402924000,"pathType":"line"},{"lng":-122.05194129962275,"lat":37.31734019047832,"tm":1655403254000,"pathType":"line"}]],"objects":[],"title":"Daily ride 2022-06-16","description":"","trackId":"20220616","distance":7,"time":"0:35","uphill":26},"__N_SSG":true}