{"pageProps":{"siteDescription":"Description of local dev version","siteTitle":"Local dev version","currentPage":"8","categories":[{"id":"all","title":"All","count":558},{"id":"with-pictures","title":"With pictures or videos","count":41},{"id":"office A","title":"office A","count":18},{"id":"miyata","title":"miyata","count":17},{"id":"office B","title":"office B","count":32},{"id":"recumbent","title":"recumbent","count":108},{"id":"tandem","title":"tandem","count":86},{"id":"wife","title":"wife","count":14},{"id":"son","title":"son","count":2},{"id":"grocery store","title":"grocery store","count":10},{"id":"just for fun","title":"just for fun","count":2},{"id":"Los Angeles","title":"Los Angeles","count":6},{"id":"school","title":"school","count":52},{"id":"horse camp","title":"horse camp","count":2},{"id":"yasha's heaven","title":"yasha's heaven","count":1},{"id":"seattle","title":"seattle","count":14},{"id":"walk","title":"walk","count":1},{"id":"office C","title":"office C","count":9},{"id":"with the kid","title":"with the kid","count":4},{"id":"ToTheEastCost","title":"ToTheEastCost","count":24}],"pages":21,"category":"with-pictures","index":[{"title":"Daily ride 2022-05-15 #542","description":"Day 13. Wyoming. Tent.","tags":["recumbent","ToTheEastCost"],"gpx":["track.gpx"],"date":"2022-05-15","hash":["bfd9dcc79465c14524593bfd3ae74ebf90ada6153f9c3a7e1bafc4f7a4de03f5"],"id":"20220515","objects":[{"type":"image","img":"20220515-photo0","lat":41.74924043744974,"lng":-106.94244724185964},{"type":"image","img":"20220515-photo1","lat":41.634513241116515,"lng":-106.28510432757875},{"type":"image","img":"20220515-photo2","lat":41.56272595233934,"lng":-106.1216796248184},{"type":"image","img":"20220515-photo3","lat":41.39747862673868,"lng":-105.82655377558574},{"type":"image","img":"20220515-photo4","lat":41.30908776678583,"lng":-105.56540654830671},{"type":"image","img":"20220515-photo5","lat":41.30922177735156,"lng":-105.56544285722451},{"type":"image","img":"20220515-photo6","lat":41.30922177735156,"lng":-105.56544285722451},{"type":"image","img":"20220515-photo7","lat":41.30923825240207,"lng":-105.56554782819232},{"type":"image","img":"20220515-photo8","lat":41.30906422188241,"lng":-105.55966100263885},{"type":"image","img":"20220515-photo9","lat":41.24245218741372,"lng":-105.4362927787285}],"time":44872000,"distance":156992.88316652228,"uphill":992,"pointCount":424,"categories":["all","recumbent","ToTheEastCost","with-pictures"]},{"title":"Daily ride 2022-05-14 #541","description":"Day 12. Wyoming. Motel. I'm The King Of I-80","tags":["recumbent","ToTheEastCost"],"gpx":["track.gpx"],"date":"2022-05-14","hash":["5e47baedd9c9c2c449c709cb169076a1e444646ab24986312ac10c84d90a2a53"],"id":"20220514","objects":[{"type":"image","img":"20220514-photo0","lat":41.57696638418188,"lng":-109.25206585721995},{"type":"image","img":"20220514-photo1","lat":41.679031733806795,"lng":-108.78618848162245},{"type":"image","img":"20220514-photo2","lat":41.63483935533609,"lng":-108.41088122478641},{"type":"image","img":"20220514-photo3","lat":41.791435140676036,"lng":-107.20934779516315},{"type":"image","img":"20220514-photo4","lat":41.779838321252264,"lng":-107.12622941815957},{"type":"image","img":"20220514-photo5","lat":41.779838321252264,"lng":-107.12622941815957},{"type":"image","img":"20220514-photo6","lat":41.7683836543759,"lng":-106.95018662977782},{"type":"image","img":"20220514-photo7","lat":41.7683836543759,"lng":-106.95018662977782}],"time":41953000,"distance":207424.00175190612,"uphill":445,"pointCount":387,"categories":["all","recumbent","ToTheEastCost","with-pictures"]}]},"__N_SSG":true}