{"pageProps":{"categories":[{"id":"all","title":"All","count":1243},{"id":"with-pictures","title":"With pictures or videos","count":53},{"id":"office A","title":"office A","count":18},{"id":"miyata","title":"miyata","count":17},{"id":"office B","title":"office B","count":32},{"id":"recumbent","title":"recumbent","count":122},{"id":"tandem","title":"tandem","count":90},{"id":"wife","title":"wife","count":15},{"id":"son","title":"son","count":2},{"id":"grocery store","title":"grocery store","count":10},{"id":"just for fun","title":"just for fun","count":2},{"id":"Los Angeles","title":"Los Angeles","count":6},{"id":"school","title":"school","count":52},{"id":"horse camp","title":"horse camp","count":2},{"id":"yasha's heaven","title":"yasha's heaven","count":1},{"id":"seattle","title":"seattle","count":14},{"id":"walk","title":"walk","count":1},{"id":"office C","title":"office C","count":9},{"id":"with the kid","title":"with the kid","count":6},{"id":"ToTheEastCoast","title":"ToTheEastCoast","count":38}],"tracks":[[{"lng":-122.02992066,"lat":37.35886852,"tm":1569000861000,"pathType":"line"},{"lng":-122.03153325,"lat":37.36040757,"tm":1569000922000,"pathType":"line"},{"lng":-122.03212429,"lat":37.36358707,"tm":1569000986000,"pathType":"line"},{"lng":-122.0322259,"lat":37.36705141,"tm":1569001050000,"pathType":"line"},{"lng":-122.03140598,"lat":37.36954927,"tm":1569001112000,"pathType":"line"},{"lng":-122.0304707,"lat":37.37220105,"tm":1569001175000,"pathType":"line"},{"lng":-122.02936267,"lat":37.3757973,"tm":1569001237000,"pathType":"line"},{"lng":-122.02819588,"lat":37.37786491,"tm":1569001301000,"pathType":"line"},{"lng":-122.02727427,"lat":37.38112018,"tm":1569001364000,"pathType":"line"},{"lng":-122.02624625,"lat":37.38426096,"tm":1569001427000,"pathType":"line"},{"lng":-122.02518137,"lat":37.38772498,"tm":1569001491000,"pathType":"line"},{"lng":-122.02554087,"lat":37.38808598,"tm":1569001555000,"pathType":"line"},{"lng":-122.02999696,"lat":37.38956419,"tm":1569001619000,"pathType":"line"},{"lng":-122.03129919,"lat":37.39069964,"tm":1569001685000,"pathType":"line"},{"lng":-122.03089387,"lat":37.39084877,"tm":1569001745000,"pathType":"line"}],[{"lng":-122.03091946,"lat":37.39141337,"tm":1569029674000,"pathType":"line"},{"lng":-122.03117147,"lat":37.39081358,"tm":1569029738000,"pathType":"line"},{"lng":-122.03095746,"lat":37.38970635,"tm":1569029801000,"pathType":"line"},{"lng":-122.02649939,"lat":37.38836712,"tm":1569029925000,"pathType":"line"},{"lng":-122.0272951,"lat":37.38466461,"tm":1569029990000,"pathType":"line"},{"lng":-122.02708178,"lat":37.38199095,"tm":1569030056000,"pathType":"line"},{"lng":-122.02810747,"lat":37.37883807,"tm":1569030117000,"pathType":"line"},{"lng":-122.02876424,"lat":37.37751608,"tm":1569030186000,"pathType":"line"},{"lng":-122.03029193,"lat":37.37301561,"tm":1569030315000,"pathType":"line"},{"lng":-122.03166535,"lat":37.36895873,"tm":1569030379000,"pathType":"line"},{"lng":-122.03194181,"lat":37.36791401,"tm":1569030444000,"pathType":"line"},{"lng":-122.03071803,"lat":37.36631354,"tm":1569030508000,"pathType":"line"},{"lng":-122.0290921,"lat":37.36490023,"tm":1569030571000,"pathType":"line"},{"lng":-122.02571118,"lat":37.36214373,"tm":1569030635000,"pathType":"line"},{"lng":-122.02703935,"lat":37.35922917,"tm":1569030704000,"pathType":"line"},{"lng":-122.02983335,"lat":37.35894691,"tm":1569030766000,"pathType":"line"},{"lng":-122.030254,"lat":37.35839123,"tm":1569030831000,"pathType":"line"},{"lng":-122.03041876,"lat":37.35735848,"tm":1569030892000,"pathType":"line"}]],"objects":[],"title":"Daily ride 2019-09-20","description":"","trackId":"20190920","distance":8.7,"time":"0:35","uphill":0},"__N_SSG":true}