{"pageProps":{"categories":[{"id":"all","title":"All","count":1243},{"id":"with-pictures","title":"With pictures or videos","count":53},{"id":"office A","title":"office A","count":18},{"id":"miyata","title":"miyata","count":17},{"id":"office B","title":"office B","count":32},{"id":"recumbent","title":"recumbent","count":122},{"id":"tandem","title":"tandem","count":90},{"id":"wife","title":"wife","count":15},{"id":"son","title":"son","count":2},{"id":"grocery store","title":"grocery store","count":10},{"id":"just for fun","title":"just for fun","count":2},{"id":"Los Angeles","title":"Los Angeles","count":6},{"id":"school","title":"school","count":52},{"id":"horse camp","title":"horse camp","count":2},{"id":"yasha's heaven","title":"yasha's heaven","count":1},{"id":"seattle","title":"seattle","count":14},{"id":"walk","title":"walk","count":1},{"id":"office C","title":"office C","count":9},{"id":"with the kid","title":"with the kid","count":6},{"id":"ToTheEastCoast","title":"ToTheEastCoast","count":38}],"tracks":[[{"lng":-122.03030984,"lat":37.35747444,"tm":1564421306000,"pathType":"line"},{"lng":-122.03053382,"lat":37.35925318,"tm":1564421501000,"pathType":"line"},{"lng":-122.03145311,"lat":37.36138672,"tm":1564421566000,"pathType":"line"},{"lng":-122.03231894,"lat":37.36409535,"tm":1564421627000,"pathType":"line"},{"lng":-122.03214022,"lat":37.36722553,"tm":1564421691000,"pathType":"line"},{"lng":-122.03151333,"lat":37.36849963,"tm":1564421757000,"pathType":"line"},{"lng":-122.03077308,"lat":37.37079185,"tm":1564421818000,"pathType":"line"},{"lng":-122.03027383,"lat":37.37365695,"tm":1564421885000,"pathType":"line"},{"lng":-122.0292812,"lat":37.37603729,"tm":1564421949000,"pathType":"line"},{"lng":-122.02838334,"lat":37.37787316,"tm":1564422013000,"pathType":"line"},{"lng":-122.02724425,"lat":37.38169343,"tm":1564422078000,"pathType":"line"},{"lng":-122.02604259,"lat":37.38478425,"tm":1564422143000,"pathType":"line"},{"lng":-122.02518854,"lat":37.38773583,"tm":1564422210000,"pathType":"line"},{"lng":-122.02744741,"lat":37.38872349,"tm":1564422271000,"pathType":"line"},{"lng":-122.03029672,"lat":37.38967839,"tm":1564422332000,"pathType":"line"},{"lng":-122.03111192,"lat":37.38994843,"tm":1564422458000,"pathType":"line"},{"lng":-122.03078229,"lat":37.39117351,"tm":1564422520000,"pathType":"line"}],[{"lng":-122.03120847,"lat":37.39099597,"tm":1564451630000,"pathType":"line"},{"lng":-122.03118224,"lat":37.38982765,"tm":1564451690000,"pathType":"line"},{"lng":-122.02680867,"lat":37.38842,"tm":1564451751000,"pathType":"line"},{"lng":-122.02721639,"lat":37.38564695,"tm":1564451812000,"pathType":"line"},{"lng":-122.026782,"lat":37.38322905,"tm":1564451873000,"pathType":"line"},{"lng":-122.02779586,"lat":37.38002608,"tm":1564451934000,"pathType":"line"},{"lng":-122.02876648,"lat":37.37753706,"tm":1564451995000,"pathType":"line"},{"lng":-122.02959994,"lat":37.37542185,"tm":1564452055000,"pathType":"line"},{"lng":-122.03047183,"lat":37.37284356,"tm":1564452116000,"pathType":"line"},{"lng":-122.03154683,"lat":37.36950471,"tm":1564452176000,"pathType":"line"},{"lng":-122.03202241,"lat":37.36785934,"tm":1564452237000,"pathType":"line"},{"lng":-122.02918972,"lat":37.36504433,"tm":1564452381000,"pathType":"line"},{"lng":-122.02766122,"lat":37.36381446,"tm":1564452444000,"pathType":"line"},{"lng":-122.02527569,"lat":37.36136968,"tm":1564452504000,"pathType":"line"},{"lng":-122.02767483,"lat":37.359142,"tm":1564452568000,"pathType":"line"},{"lng":-122.03035858,"lat":37.3574796,"tm":1564452639000,"pathType":"line"}]],"objects":[],"title":"Daily ride 2019-07-29","description":"","trackId":"20190729","distance":8.7,"time":"0:37","uphill":68},"__N_SSG":true}