{"pageProps":{"categories":[{"id":"all","title":"All","count":1243},{"id":"with-pictures","title":"With pictures or videos","count":53},{"id":"office A","title":"office A","count":18},{"id":"miyata","title":"miyata","count":17},{"id":"office B","title":"office B","count":32},{"id":"recumbent","title":"recumbent","count":122},{"id":"tandem","title":"tandem","count":90},{"id":"wife","title":"wife","count":15},{"id":"son","title":"son","count":2},{"id":"grocery store","title":"grocery store","count":10},{"id":"just for fun","title":"just for fun","count":2},{"id":"Los Angeles","title":"Los Angeles","count":6},{"id":"school","title":"school","count":52},{"id":"horse camp","title":"horse camp","count":2},{"id":"yasha's heaven","title":"yasha's heaven","count":1},{"id":"seattle","title":"seattle","count":14},{"id":"walk","title":"walk","count":1},{"id":"office C","title":"office C","count":9},{"id":"with the kid","title":"with the kid","count":6},{"id":"ToTheEastCoast","title":"ToTheEastCoast","count":38}],"tracks":[[{"lng":-122.03082771,"lat":37.36017436,"tm":1567186916000,"pathType":"line"},{"lng":-122.0321372,"lat":37.36249583,"tm":1567186982000,"pathType":"line"},{"lng":-122.03219881,"lat":37.36605692,"tm":1567187048000,"pathType":"line"},{"lng":-122.0314918,"lat":37.36876471,"tm":1567187113000,"pathType":"line"},{"lng":-122.03046969,"lat":37.37249088,"tm":1567187178000,"pathType":"line"},{"lng":-122.02968909,"lat":37.37456807,"tm":1567187244000,"pathType":"line"},{"lng":-122.02814825,"lat":37.37851039,"tm":1567187310000,"pathType":"line"},{"lng":-122.0267981,"lat":37.38289251,"tm":1567187374000,"pathType":"line"},{"lng":-122.02544332,"lat":37.38656651,"tm":1567187434000,"pathType":"line"},{"lng":-122.02500508,"lat":37.38772122,"tm":1567187495000,"pathType":"line"},{"lng":-122.02851486,"lat":37.38903113,"tm":1567187562000,"pathType":"line"},{"lng":-122.03039513,"lat":37.39101684,"tm":1567187623000,"pathType":"line"},{"lng":-122.03106939,"lat":37.39127965,"tm":1567187689000,"pathType":"line"}],[{"lng":-122.03057745,"lat":37.39108774,"tm":1567212613000,"pathType":"line"},{"lng":-122.03093542,"lat":37.38976996,"tm":1567212674000,"pathType":"line"},{"lng":-122.02807905,"lat":37.38876318,"tm":1567212795000,"pathType":"line"},{"lng":-122.02673865,"lat":37.38657534,"tm":1567212856000,"pathType":"line"},{"lng":-122.0275653,"lat":37.38399049,"tm":1567212916000,"pathType":"line"},{"lng":-122.02704492,"lat":37.38217529,"tm":1567212977000,"pathType":"line"},{"lng":-122.02792381,"lat":37.37949645,"tm":1567213037000,"pathType":"line"},{"lng":-122.02837933,"lat":37.37805385,"tm":1567213098000,"pathType":"line"},{"lng":-122.02945918,"lat":37.37597587,"tm":1567213159000,"pathType":"line"},{"lng":-122.03046586,"lat":37.37307577,"tm":1567213220000,"pathType":"line"},{"lng":-122.03105114,"lat":37.3710724,"tm":1567213281000,"pathType":"line"},{"lng":-122.0318886,"lat":37.36811755,"tm":1567213342000,"pathType":"line"},{"lng":-122.03170158,"lat":37.36710011,"tm":1567213403000,"pathType":"line"},{"lng":-122.02916836,"lat":37.3649314,"tm":1567213464000,"pathType":"line"},{"lng":-122.02623822,"lat":37.36254412,"tm":1567213525000,"pathType":"line"},{"lng":-122.0261765,"lat":37.35971974,"tm":1567213585000,"pathType":"line"},{"lng":-122.0298238,"lat":37.35898997,"tm":1567213646000,"pathType":"line"},{"lng":-122.03049556,"lat":37.35747203,"tm":1567213707000,"pathType":"line"}]],"objects":[],"title":"Daily ride 2019-08-30","description":"","trackId":"20190830","distance":8.4,"time":"0:31","uphill":0},"__N_SSG":true}