{"pageProps":{"categories":[{"id":"all","title":"All","count":1243},{"id":"with-pictures","title":"With pictures or videos","count":53},{"id":"office A","title":"office A","count":18},{"id":"miyata","title":"miyata","count":17},{"id":"office B","title":"office B","count":32},{"id":"recumbent","title":"recumbent","count":122},{"id":"tandem","title":"tandem","count":90},{"id":"wife","title":"wife","count":15},{"id":"son","title":"son","count":2},{"id":"grocery store","title":"grocery store","count":10},{"id":"just for fun","title":"just for fun","count":2},{"id":"Los Angeles","title":"Los Angeles","count":6},{"id":"school","title":"school","count":52},{"id":"horse camp","title":"horse camp","count":2},{"id":"yasha's heaven","title":"yasha's heaven","count":1},{"id":"seattle","title":"seattle","count":14},{"id":"walk","title":"walk","count":1},{"id":"office C","title":"office C","count":9},{"id":"with the kid","title":"with the kid","count":6},{"id":"ToTheEastCoast","title":"ToTheEastCoast","count":38}],"tracks":[[{"lng":-122.03055791,"lat":37.35731003,"tm":1572545472000,"pathType":"line"},{"lng":-122.03021141,"lat":37.35913783,"tm":1572545593000,"pathType":"line"},{"lng":-122.03171749,"lat":37.36125614,"tm":1572545653000,"pathType":"line"},{"lng":-122.03239536,"lat":37.36414509,"tm":1572545717000,"pathType":"line"},{"lng":-122.0322988,"lat":37.36735726,"tm":1572545777000,"pathType":"line"},{"lng":-122.03109385,"lat":37.37087019,"tm":1572545902000,"pathType":"line"},{"lng":-122.02972997,"lat":37.37515098,"tm":1572545966000,"pathType":"line"},{"lng":-122.02889148,"lat":37.37723499,"tm":1572546030000,"pathType":"line"},{"lng":-122.02785151,"lat":37.37986339,"tm":1572546093000,"pathType":"line"},{"lng":-122.02655079,"lat":37.38394058,"tm":1572546156000,"pathType":"line"},{"lng":-122.02521095,"lat":37.38766657,"tm":1572546219000,"pathType":"line"},{"lng":-122.02777668,"lat":37.38890373,"tm":1572546282000,"pathType":"line"},{"lng":-122.03033334,"lat":37.38972467,"tm":1572546346000,"pathType":"line"},{"lng":-122.03063745,"lat":37.39116969,"tm":1572546474000,"pathType":"line"},{"lng":-122.03133639,"lat":37.39114899,"tm":1572546538000,"pathType":"line"}],[{"lng":-122.0311567,"lat":37.39097702,"tm":1572572398000,"pathType":"line"},{"lng":-122.03041739,"lat":37.38976015,"tm":1572572463000,"pathType":"line"},{"lng":-122.02926398,"lat":37.38926873,"tm":1572572526000,"pathType":"line"},{"lng":-122.02630163,"lat":37.38781049,"tm":1572572588000,"pathType":"line"},{"lng":-122.02734597,"lat":37.38493231,"tm":1572572653000,"pathType":"line"},{"lng":-122.02683865,"lat":37.38280255,"tm":1572572717000,"pathType":"line"},{"lng":-122.02777946,"lat":37.37980887,"tm":1572572780000,"pathType":"line"},{"lng":-122.02920308,"lat":37.37651163,"tm":1572572843000,"pathType":"line"},{"lng":-122.02983964,"lat":37.37458637,"tm":1572572906000,"pathType":"line"},{"lng":-122.03106648,"lat":37.37117206,"tm":1572572969000,"pathType":"line"},{"lng":-122.03200074,"lat":37.36751315,"tm":1572573031000,"pathType":"line"},{"lng":-122.02915267,"lat":37.3651037,"tm":1572573092000,"pathType":"line"},{"lng":-122.0267857,"lat":37.3630834,"tm":1572573155000,"pathType":"line"},{"lng":-122.02662855,"lat":37.3593115,"tm":1572573218000,"pathType":"line"},{"lng":-122.03020783,"lat":37.35859675,"tm":1572573280000,"pathType":"line"},{"lng":-122.03039031,"lat":37.35745749,"tm":1572573340000,"pathType":"line"}]],"objects":[],"title":"Daily ride 2019-10-31","description":"","trackId":"20191031","distance":8.7,"time":"0:33","uphill":43},"__N_SSG":true}