{"pageProps":{"categories":[{"id":"all","title":"All","count":1243},{"id":"with-pictures","title":"With pictures or videos","count":53},{"id":"office A","title":"office A","count":18},{"id":"miyata","title":"miyata","count":17},{"id":"office B","title":"office B","count":32},{"id":"recumbent","title":"recumbent","count":122},{"id":"tandem","title":"tandem","count":90},{"id":"wife","title":"wife","count":15},{"id":"son","title":"son","count":2},{"id":"grocery store","title":"grocery store","count":10},{"id":"just for fun","title":"just for fun","count":2},{"id":"Los Angeles","title":"Los Angeles","count":6},{"id":"school","title":"school","count":52},{"id":"horse camp","title":"horse camp","count":2},{"id":"yasha's heaven","title":"yasha's heaven","count":1},{"id":"seattle","title":"seattle","count":14},{"id":"walk","title":"walk","count":1},{"id":"office C","title":"office C","count":9},{"id":"with the kid","title":"with the kid","count":6},{"id":"ToTheEastCoast","title":"ToTheEastCoast","count":38}],"tracks":[[{"lng":-122.0302492,"lat":37.35990974,"tm":1564766807000,"pathType":"line"},{"lng":-122.03217392,"lat":37.36267305,"tm":1564766869000,"pathType":"line"},{"lng":-122.03231406,"lat":37.36679568,"tm":1564766932000,"pathType":"line"},{"lng":-122.03106311,"lat":37.37053639,"tm":1564766995000,"pathType":"line"},{"lng":-122.03025654,"lat":37.37311502,"tm":1564767062000,"pathType":"line"},{"lng":-122.02942448,"lat":37.37557715,"tm":1564767124000,"pathType":"line"},{"lng":-122.02881631,"lat":37.37724591,"tm":1564767187000,"pathType":"line"},{"lng":-122.02741952,"lat":37.38068308,"tm":1564767250000,"pathType":"line"},{"lng":-122.02650098,"lat":37.38341538,"tm":1564767316000,"pathType":"line"},{"lng":-122.02544599,"lat":37.38682748,"tm":1564767377000,"pathType":"line"},{"lng":-122.02713268,"lat":37.38869525,"tm":1564767442000,"pathType":"line"},{"lng":-122.03035094,"lat":37.38967988,"tm":1564767506000,"pathType":"line"},{"lng":-122.03175116,"lat":37.39038109,"tm":1564767567000,"pathType":"line"},{"lng":-122.03092476,"lat":37.39125961,"tm":1564767629000,"pathType":"line"},{"lng":-122.03142103,"lat":37.39111356,"tm":1564767690000,"pathType":"line"}],[{"lng":-122.03172331,"lat":37.39016715,"tm":1564795814000,"pathType":"line"},{"lng":-122.03098062,"lat":37.38983894,"tm":1564795881000,"pathType":"line"},{"lng":-122.02971596,"lat":37.38926855,"tm":1564795948000,"pathType":"line"},{"lng":-122.02646207,"lat":37.3874269,"tm":1564796009000,"pathType":"line"},{"lng":-122.02741219,"lat":37.38431503,"tm":1564796069000,"pathType":"line"},{"lng":-122.02690179,"lat":37.38240872,"tm":1564796129000,"pathType":"line"},{"lng":-122.02789098,"lat":37.37949044,"tm":1564796190000,"pathType":"line"},{"lng":-122.02897096,"lat":37.37763609,"tm":1564796251000,"pathType":"line"},{"lng":-122.0296322,"lat":37.37530086,"tm":1564796313000,"pathType":"line"},{"lng":-122.03137001,"lat":37.3711289,"tm":1564796378000,"pathType":"line"},{"lng":-122.0319238,"lat":37.36813786,"tm":1564796443000,"pathType":"line"},{"lng":-122.03228387,"lat":37.36783121,"tm":1564796507000,"pathType":"line"},{"lng":-122.02830638,"lat":37.36422221,"tm":1564796632000,"pathType":"line"},{"lng":-122.02508413,"lat":37.36167958,"tm":1564796703000,"pathType":"line"},{"lng":-122.02774422,"lat":37.35933814,"tm":1564796768000,"pathType":"line"},{"lng":-122.03030673,"lat":37.35794894,"tm":1564796833000,"pathType":"line"}]],"objects":[],"title":"Daily ride 2019-08-02","description":"","trackId":"20190802","distance":8.5,"time":"0:32","uphill":21},"__N_SSG":true}