{"pageProps":{"categories":[{"id":"all","title":"All","count":1243},{"id":"with-pictures","title":"With pictures or videos","count":53},{"id":"office A","title":"office A","count":18},{"id":"miyata","title":"miyata","count":17},{"id":"office B","title":"office B","count":32},{"id":"recumbent","title":"recumbent","count":122},{"id":"tandem","title":"tandem","count":90},{"id":"wife","title":"wife","count":15},{"id":"son","title":"son","count":2},{"id":"grocery store","title":"grocery store","count":10},{"id":"just for fun","title":"just for fun","count":2},{"id":"Los Angeles","title":"Los Angeles","count":6},{"id":"school","title":"school","count":52},{"id":"horse camp","title":"horse camp","count":2},{"id":"yasha's heaven","title":"yasha's heaven","count":1},{"id":"seattle","title":"seattle","count":14},{"id":"walk","title":"walk","count":1},{"id":"office C","title":"office C","count":9},{"id":"with the kid","title":"with the kid","count":6},{"id":"ToTheEastCoast","title":"ToTheEastCoast","count":38}],"tracks":[[{"lng":-122.03024226,"lat":37.35826696,"tm":1555953201000,"pathType":"line"},{"lng":-122.03057231,"lat":37.35944489,"tm":1555953262000,"pathType":"line"},{"lng":-122.03152789,"lat":37.36165714,"tm":1555953323000,"pathType":"line"},{"lng":-122.03229736,"lat":37.36438151,"tm":1555953383000,"pathType":"line"},{"lng":-122.03213078,"lat":37.36730405,"tm":1555953444000,"pathType":"line"},{"lng":-122.03167837,"lat":37.36821959,"tm":1555953565000,"pathType":"line"},{"lng":-122.03074032,"lat":37.37150082,"tm":1555953625000,"pathType":"line"},{"lng":-122.02997932,"lat":37.3738531,"tm":1555953685000,"pathType":"line"},{"lng":-122.0285074,"lat":37.37756602,"tm":1555953746000,"pathType":"line"},{"lng":-122.0270197,"lat":37.38200396,"tm":1555953807000,"pathType":"line"},{"lng":-122.02563957,"lat":37.38610937,"tm":1555953867000,"pathType":"line"},{"lng":-122.02503726,"lat":37.38773129,"tm":1555953928000,"pathType":"line"},{"lng":-122.02798896,"lat":37.3889214,"tm":1555953988000,"pathType":"line"},{"lng":-122.03026104,"lat":37.38970412,"tm":1555954049000,"pathType":"line"},{"lng":-122.03103342,"lat":37.39119428,"tm":1555954109000,"pathType":"line"},{"lng":-122.03114953,"lat":37.39099659,"tm":1555954170000,"pathType":"line"}],[{"lng":-122.03130313,"lat":37.3899199,"tm":1555982447000,"pathType":"line"},{"lng":-122.02526986,"lat":37.38774344,"tm":1555982508000,"pathType":"line"},{"lng":-122.02631256,"lat":37.38430906,"tm":1555982569000,"pathType":"line"},{"lng":-122.02706325,"lat":37.38224372,"tm":1555982631000,"pathType":"line"},{"lng":-122.02828452,"lat":37.37851785,"tm":1555982695000,"pathType":"line"},{"lng":-122.02851527,"lat":37.37787813,"tm":1555982756000,"pathType":"line"},{"lng":-122.03000639,"lat":37.37422795,"tm":1555982816000,"pathType":"line"},{"lng":-122.03106663,"lat":37.37108726,"tm":1555982877000,"pathType":"line"},{"lng":-122.03208624,"lat":37.36779294,"tm":1555982937000,"pathType":"line"},{"lng":-122.02979519,"lat":37.36550254,"tm":1555983058000,"pathType":"line"},{"lng":-122.02909216,"lat":37.3649476,"tm":1555983118000,"pathType":"line"},{"lng":-122.02550366,"lat":37.36194265,"tm":1555983179000,"pathType":"line"},{"lng":-122.0274298,"lat":37.35914856,"tm":1555983242000,"pathType":"line"},{"lng":-122.02799718,"lat":37.3591534,"tm":1555983305000,"pathType":"line"},{"lng":-122.02931759,"lat":37.35890617,"tm":1555983367000,"pathType":"line"},{"lng":-122.030276,"lat":37.35765645,"tm":1555983432000,"pathType":"line"}]],"objects":[],"title":"Daily ride 2019-04-22","description":"","trackId":"20190422","distance":8.7,"time":"0:33","uphill":0},"__N_SSG":true}