{"pageProps":{"categories":[{"id":"all","title":"All","count":1243},{"id":"with-pictures","title":"With pictures or videos","count":53},{"id":"office A","title":"office A","count":18},{"id":"miyata","title":"miyata","count":17},{"id":"office B","title":"office B","count":32},{"id":"recumbent","title":"recumbent","count":122},{"id":"tandem","title":"tandem","count":90},{"id":"wife","title":"wife","count":15},{"id":"son","title":"son","count":2},{"id":"grocery store","title":"grocery store","count":10},{"id":"just for fun","title":"just for fun","count":2},{"id":"Los Angeles","title":"Los Angeles","count":6},{"id":"school","title":"school","count":52},{"id":"horse camp","title":"horse camp","count":2},{"id":"yasha's heaven","title":"yasha's heaven","count":1},{"id":"seattle","title":"seattle","count":14},{"id":"walk","title":"walk","count":1},{"id":"office C","title":"office C","count":9},{"id":"with the kid","title":"with the kid","count":6},{"id":"ToTheEastCoast","title":"ToTheEastCoast","count":38}],"tracks":[[{"lng":-122.02950289,"lat":37.30228459,"tm":1604634886000,"pathType":"line"},{"lng":-122.02747052,"lat":37.30226658,"tm":1604634946000,"pathType":"line"},{"lng":-122.02605494,"lat":37.30372466,"tm":1604635007000,"pathType":"line"},{"lng":-122.02468793,"lat":37.30479076,"tm":1604635067000,"pathType":"line"},{"lng":-122.02394579,"lat":37.30591999,"tm":1604635127000,"pathType":"line"},{"lng":-122.02386282,"lat":37.30804365,"tm":1604635187000,"pathType":"line"},{"lng":-122.02323517,"lat":37.30971479,"tm":1604635248000,"pathType":"line"},{"lng":-122.02311417,"lat":37.31071575,"tm":1604635309000,"pathType":"line"},{"lng":-122.02309655,"lat":37.31284226,"tm":1604635370000,"pathType":"line"},{"lng":-122.02310267,"lat":37.31497938,"tm":1604635431000,"pathType":"line"},{"lng":-122.0231381,"lat":37.31713894,"tm":1604635492000,"pathType":"line"},{"lng":-122.02315922,"lat":37.3192017,"tm":1604635553000,"pathType":"line"},{"lng":-122.02327516,"lat":37.32030678,"tm":1604635614000,"pathType":"line"},{"lng":-122.02376931,"lat":37.32126084,"tm":1604635675000,"pathType":"line"},{"lng":-122.02428775,"lat":37.32136451,"tm":1604635983000,"pathType":"line"},{"lng":-122.02397483,"lat":37.3213523,"tm":1604636046000,"pathType":"line"}],[{"lng":-122.02368989,"lat":37.32077588,"tm":1604637454000,"pathType":"line"},{"lng":-122.02326619,"lat":37.31993556,"tm":1604637514000,"pathType":"line"},{"lng":-122.02324925,"lat":37.31801429,"tm":1604637575000,"pathType":"line"},{"lng":-122.02324574,"lat":37.31602752,"tm":1604637636000,"pathType":"line"},{"lng":-122.02322609,"lat":37.31420786,"tm":1604637697000,"pathType":"line"},{"lng":-122.02324322,"lat":37.31253845,"tm":1604637758000,"pathType":"line"},{"lng":-122.02324248,"lat":37.31083438,"tm":1604637819000,"pathType":"line"},{"lng":-122.02334866,"lat":37.30974847,"tm":1604637879000,"pathType":"line"},{"lng":-122.02394083,"lat":37.30806872,"tm":1604637940000,"pathType":"line"},{"lng":-122.0240777,"lat":37.30630578,"tm":1604638000000,"pathType":"line"},{"lng":-122.02411593,"lat":37.30468039,"tm":1604638061000,"pathType":"line"},{"lng":-122.02560965,"lat":37.30406229,"tm":1604638121000,"pathType":"line"},{"lng":-122.02684551,"lat":37.30278905,"tm":1604638182000,"pathType":"line"},{"lng":-122.02842246,"lat":37.30225881,"tm":1604638242000,"pathType":"line"}]],"objects":[],"title":"Daily ride 2020-11-05","description":"","trackId":"20201105","distance":4.9,"time":"0:32","uphill":0},"__N_SSG":true}