{"pageProps":{"categories":[{"id":"all","title":"All","count":1243},{"id":"with-pictures","title":"With pictures or videos","count":53},{"id":"office A","title":"office A","count":18},{"id":"miyata","title":"miyata","count":17},{"id":"office B","title":"office B","count":32},{"id":"recumbent","title":"recumbent","count":122},{"id":"tandem","title":"tandem","count":90},{"id":"wife","title":"wife","count":15},{"id":"son","title":"son","count":2},{"id":"grocery store","title":"grocery store","count":10},{"id":"just for fun","title":"just for fun","count":2},{"id":"Los Angeles","title":"Los Angeles","count":6},{"id":"school","title":"school","count":52},{"id":"horse camp","title":"horse camp","count":2},{"id":"yasha's heaven","title":"yasha's heaven","count":1},{"id":"seattle","title":"seattle","count":14},{"id":"walk","title":"walk","count":1},{"id":"office C","title":"office C","count":9},{"id":"with the kid","title":"with the kid","count":6},{"id":"ToTheEastCoast","title":"ToTheEastCoast","count":38}],"tracks":[[{"lng":-122.03104367,"lat":37.39112545,"tm":1583890397000,"pathType":"line"},{"lng":-122.03072857,"lat":37.389648,"tm":1583890518000,"pathType":"line"},{"lng":-122.02802347,"lat":37.38883855,"tm":1583890579000,"pathType":"line"},{"lng":-122.02659945,"lat":37.38702756,"tm":1583890640000,"pathType":"line"},{"lng":-122.02735738,"lat":37.38473305,"tm":1583890701000,"pathType":"line"},{"lng":-122.02674441,"lat":37.38303337,"tm":1583890762000,"pathType":"line"},{"lng":-122.02753159,"lat":37.38061372,"tm":1583890822000,"pathType":"line"},{"lng":-122.02829416,"lat":37.37832879,"tm":1583890883000,"pathType":"line"},{"lng":-122.0287521,"lat":37.37749757,"tm":1583890944000,"pathType":"line"},{"lng":-122.02965707,"lat":37.37527708,"tm":1583891005000,"pathType":"line"},{"lng":-122.03047054,"lat":37.37267886,"tm":1583891066000,"pathType":"line"},{"lng":-122.0312673,"lat":37.37031082,"tm":1583891126000,"pathType":"line"},{"lng":-122.03195452,"lat":37.36791276,"tm":1583891186000,"pathType":"line"},{"lng":-122.03101584,"lat":37.36656911,"tm":1583891312000,"pathType":"line"},{"lng":-122.02899069,"lat":37.36486809,"tm":1583891372000,"pathType":"line"},{"lng":-122.02648878,"lat":37.36284667,"tm":1583891432000,"pathType":"line"},{"lng":-122.02550917,"lat":37.36068238,"tm":1583891493000,"pathType":"line"},{"lng":-122.0276105,"lat":37.35908597,"tm":1583891554000,"pathType":"line"},{"lng":-122.03029605,"lat":37.35814598,"tm":1583891614000,"pathType":"line"},{"lng":-122.03046991,"lat":37.35745721,"tm":1583891674000,"pathType":"line"}]],"objects":[],"title":"Daily ride 2020-03-10","description":"","trackId":"20200310","distance":4.5,"time":"0:21","uphill":0},"__N_SSG":true}