{"pageProps":{"categories":[{"id":"all","title":"All","count":1243},{"id":"with-pictures","title":"With pictures or videos","count":53},{"id":"office A","title":"office A","count":18},{"id":"miyata","title":"miyata","count":17},{"id":"office B","title":"office B","count":32},{"id":"recumbent","title":"recumbent","count":122},{"id":"tandem","title":"tandem","count":90},{"id":"wife","title":"wife","count":15},{"id":"son","title":"son","count":2},{"id":"grocery store","title":"grocery store","count":10},{"id":"just for fun","title":"just for fun","count":2},{"id":"Los Angeles","title":"Los Angeles","count":6},{"id":"school","title":"school","count":52},{"id":"horse camp","title":"horse camp","count":2},{"id":"yasha's heaven","title":"yasha's heaven","count":1},{"id":"seattle","title":"seattle","count":14},{"id":"walk","title":"walk","count":1},{"id":"office C","title":"office C","count":9},{"id":"with the kid","title":"with the kid","count":6},{"id":"ToTheEastCoast","title":"ToTheEastCoast","count":38}],"tracks":[[{"lng":-122.0321609,"lat":37.30242783,"tm":1625851237000,"pathType":"line"},{"lng":-122.03213807,"lat":37.30364007,"tm":1625851299000,"pathType":"line"},{"lng":-122.03225607,"lat":37.30638471,"tm":1625851362000,"pathType":"line"},{"lng":-122.03202911,"lat":37.31009037,"tm":1625851425000,"pathType":"line"},{"lng":-122.0322005,"lat":37.31225549,"tm":1625851487000,"pathType":"line"},{"lng":-122.03229536,"lat":37.31485302,"tm":1625851549000,"pathType":"line"},{"lng":-122.03217558,"lat":37.31610469,"tm":1625851618000,"pathType":"line"},{"lng":-122.0342564,"lat":37.31566525,"tm":1625851683000,"pathType":"line"},{"lng":-122.03656235,"lat":37.31565162,"tm":1625851745000,"pathType":"line"},{"lng":-122.03858389,"lat":37.31563329,"tm":1625851805000,"pathType":"line"},{"lng":-122.04061947,"lat":37.3156245,"tm":1625851865000,"pathType":"line"},{"lng":-122.04292791,"lat":37.3156279,"tm":1625851926000,"pathType":"line"},{"lng":-122.04496897,"lat":37.31561848,"tm":1625851986000,"pathType":"line"},{"lng":-122.04707866,"lat":37.31560947,"tm":1625852047000,"pathType":"line"},{"lng":-122.0491351,"lat":37.31563823,"tm":1625852108000,"pathType":"line"},{"lng":-122.05041117,"lat":37.31619872,"tm":1625852169000,"pathType":"line"},{"lng":-122.05166734,"lat":37.31727716,"tm":1625852229000,"pathType":"line"},{"lng":-122.05221689,"lat":37.31786476,"tm":1625852398000,"pathType":"line"},{"lng":-122.05206319,"lat":37.31769426,"tm":1625852459000,"pathType":"line"}],[{"lng":-122.05198048,"lat":37.31705012,"tm":1625878014000,"pathType":"line"},{"lng":-122.0492492,"lat":37.31559303,"tm":1625878160000,"pathType":"line"},{"lng":-122.0448067,"lat":37.31552334,"tm":1625878222000,"pathType":"line"},{"lng":-122.03988372,"lat":37.3154772,"tm":1625878286000,"pathType":"line"},{"lng":-122.03433171,"lat":37.31556461,"tm":1625878346000,"pathType":"line"},{"lng":-122.03262236,"lat":37.31394106,"tm":1625878408000,"pathType":"line"},{"lng":-122.03254542,"lat":37.31247574,"tm":1625878469000,"pathType":"line"},{"lng":-122.03244506,"lat":37.3106597,"tm":1625878530000,"pathType":"line"},{"lng":-122.03241454,"lat":37.30823919,"tm":1625878591000,"pathType":"line"},{"lng":-122.03027729,"lat":37.3083544,"tm":1625878713000,"pathType":"line"},{"lng":-122.02957809,"lat":37.30630104,"tm":1625878773000,"pathType":"line"},{"lng":-122.02947792,"lat":37.30421657,"tm":1625878834000,"pathType":"line"},{"lng":-122.02968382,"lat":37.30224458,"tm":1625878895000,"pathType":"line"}]],"objects":[],"title":"Daily ride 2021-07-09","description":"","trackId":"20210709","distance":6.9,"time":"0:35","uphill":54},"__N_SSG":true}