{"pageProps":{"categories":[{"id":"all","title":"All","count":1243},{"id":"with-pictures","title":"With pictures or videos","count":53},{"id":"office A","title":"office A","count":18},{"id":"miyata","title":"miyata","count":17},{"id":"office B","title":"office B","count":32},{"id":"recumbent","title":"recumbent","count":122},{"id":"tandem","title":"tandem","count":90},{"id":"wife","title":"wife","count":15},{"id":"son","title":"son","count":2},{"id":"grocery store","title":"grocery store","count":10},{"id":"just for fun","title":"just for fun","count":2},{"id":"Los Angeles","title":"Los Angeles","count":6},{"id":"school","title":"school","count":52},{"id":"horse camp","title":"horse camp","count":2},{"id":"yasha's heaven","title":"yasha's heaven","count":1},{"id":"seattle","title":"seattle","count":14},{"id":"walk","title":"walk","count":1},{"id":"office C","title":"office C","count":9},{"id":"with the kid","title":"with the kid","count":6},{"id":"ToTheEastCoast","title":"ToTheEastCoast","count":38}],"tracks":[[{"lng":-122.02895875,"lat":37.30222173,"tm":1618693717000,"pathType":"line"},{"lng":-122.02677137,"lat":37.30301544,"tm":1618693778000,"pathType":"line"},{"lng":-122.02470162,"lat":37.30469823,"tm":1618693839000,"pathType":"line"},{"lng":-122.02393467,"lat":37.30671271,"tm":1618693902000,"pathType":"line"},{"lng":-122.02361081,"lat":37.30884951,"tm":1618693962000,"pathType":"line"},{"lng":-122.02314521,"lat":37.31047646,"tm":1618694023000,"pathType":"line"},{"lng":-122.02311652,"lat":37.31303165,"tm":1618694084000,"pathType":"line"},{"lng":-122.02300051,"lat":37.31553428,"tm":1618694145000,"pathType":"line"},{"lng":-122.02325522,"lat":37.31790268,"tm":1618694206000,"pathType":"line"},{"lng":-122.02314459,"lat":37.32038338,"tm":1618694267000,"pathType":"line"},{"lng":-122.02415576,"lat":37.32124518,"tm":1618694327000,"pathType":"line"}],[{"lng":-122.0233201,"lat":37.32104567,"tm":1618700533000,"pathType":"line"},{"lng":-122.02324559,"lat":37.31942235,"tm":1618700593000,"pathType":"line"},{"lng":-122.02325364,"lat":37.3174735,"tm":1618700654000,"pathType":"line"},{"lng":-122.02322838,"lat":37.31553754,"tm":1618700715000,"pathType":"line"},{"lng":-122.02322457,"lat":37.31368922,"tm":1618700775000,"pathType":"line"},{"lng":-122.02324812,"lat":37.31173983,"tm":1618700836000,"pathType":"line"},{"lng":-122.02324932,"lat":37.31004405,"tm":1618700897000,"pathType":"line"},{"lng":-122.02350616,"lat":37.30902091,"tm":1618700959000,"pathType":"line"},{"lng":-122.0240722,"lat":37.30676764,"tm":1618701022000,"pathType":"line"},{"lng":-122.02401448,"lat":37.30481961,"tm":1618701083000,"pathType":"line"},{"lng":-122.02609977,"lat":37.30378355,"tm":1618701145000,"pathType":"line"},{"lng":-122.0274365,"lat":37.30218534,"tm":1618701206000,"pathType":"line"}]],"objects":[],"title":"Daily ride 2021-04-17","description":"","trackId":"20210417","distance":4.7,"time":"0:21","uphill":47},"__N_SSG":true}