{"pageProps":{"categories":[{"id":"all","title":"All","count":1243},{"id":"with-pictures","title":"With pictures or videos","count":53},{"id":"office A","title":"office A","count":18},{"id":"miyata","title":"miyata","count":17},{"id":"office B","title":"office B","count":32},{"id":"recumbent","title":"recumbent","count":122},{"id":"tandem","title":"tandem","count":90},{"id":"wife","title":"wife","count":15},{"id":"son","title":"son","count":2},{"id":"grocery store","title":"grocery store","count":10},{"id":"just for fun","title":"just for fun","count":2},{"id":"Los Angeles","title":"Los Angeles","count":6},{"id":"school","title":"school","count":52},{"id":"horse camp","title":"horse camp","count":2},{"id":"yasha's heaven","title":"yasha's heaven","count":1},{"id":"seattle","title":"seattle","count":14},{"id":"walk","title":"walk","count":1},{"id":"office C","title":"office C","count":9},{"id":"with the kid","title":"with the kid","count":6},{"id":"ToTheEastCoast","title":"ToTheEastCoast","count":38}],"tracks":[[{"lng":-121.98253135,"lat":37.32437652,"tm":1636311088000,"pathType":"line"},{"lng":-121.98595433,"lat":37.32441238,"tm":1636311150000,"pathType":"line"},{"lng":-121.98854201,"lat":37.32412133,"tm":1636311215000,"pathType":"line"},{"lng":-121.99055436,"lat":37.32338783,"tm":1636311278000,"pathType":"line"},{"lng":-121.99318162,"lat":37.32318345,"tm":1636311342000,"pathType":"line"},{"lng":-121.99507783,"lat":37.32341485,"tm":1636311408000,"pathType":"line"},{"lng":-121.99928168,"lat":37.3230249,"tm":1636311540000,"pathType":"line"},{"lng":-122.0017135,"lat":37.32312086,"tm":1636311604000,"pathType":"line"},{"lng":-122.00466166,"lat":37.32313761,"tm":1636311668000,"pathType":"line"},{"lng":-122.00650026,"lat":37.32319635,"tm":1636311732000,"pathType":"line"},{"lng":-122.00981373,"lat":37.3231811,"tm":1636311796000,"pathType":"line"},{"lng":-122.01315844,"lat":37.32307727,"tm":1636311859000,"pathType":"line"},{"lng":-122.01438413,"lat":37.32328655,"tm":1636311923000,"pathType":"line"},{"lng":-122.01427906,"lat":37.32032638,"tm":1636312107000,"pathType":"line"},{"lng":-122.0133607,"lat":37.3180724,"tm":1636312168000,"pathType":"line"},{"lng":-122.01348142,"lat":37.31592708,"tm":1636312228000,"pathType":"line"},{"lng":-122.01347294,"lat":37.3131446,"tm":1636312289000,"pathType":"line"},{"lng":-122.01358529,"lat":37.31069799,"tm":1636312349000,"pathType":"line"},{"lng":-122.01667902,"lat":37.31025088,"tm":1636312410000,"pathType":"line"},{"lng":-122.01795129,"lat":37.30946354,"tm":1636312473000,"pathType":"line"},{"lng":-122.01949368,"lat":37.30801405,"tm":1636312536000,"pathType":"line"},{"lng":-122.01909176,"lat":37.30837464,"tm":1636312658000,"pathType":"line"},{"lng":-122.0173452,"lat":37.31007634,"tm":1636312719000,"pathType":"line"},{"lng":-122.01372335,"lat":37.3104238,"tm":1636312782000,"pathType":"line"},{"lng":-122.01347775,"lat":37.31180328,"tm":1636312844000,"pathType":"line"},{"lng":-122.0133068,"lat":37.31519426,"tm":1636312906000,"pathType":"line"},{"lng":-122.01336325,"lat":37.31863921,"tm":1636312969000,"pathType":"line"},{"lng":-122.01413539,"lat":37.32191365,"tm":1636313029000,"pathType":"line"},{"lng":-122.01094088,"lat":37.32286174,"tm":1636313090000,"pathType":"line"},{"lng":-122.00661674,"lat":37.32290608,"tm":1636313151000,"pathType":"line"},{"lng":-122.00209309,"lat":37.32289848,"tm":1636313212000,"pathType":"line"},{"lng":-121.9971903,"lat":37.32286479,"tm":1636313273000,"pathType":"line"},{"lng":-121.99549897,"lat":37.32291639,"tm":1636313334000,"pathType":"line"},{"lng":-121.99272548,"lat":37.32293984,"tm":1636313395000,"pathType":"line"},{"lng":-121.99209128,"lat":37.32293629,"tm":1636313455000,"pathType":"line"},{"lng":-121.98780746,"lat":37.32297922,"tm":1636313516000,"pathType":"line"},{"lng":-121.98725926,"lat":37.3238883,"tm":1636313577000,"pathType":"line"},{"lng":-121.98385073,"lat":37.32432418,"tm":1636313638000,"pathType":"line"}]],"objects":[],"title":"Daily ride 2021-11-07","description":"","trackId":"20211107","distance":9.6,"time":"0:43","uphill":53},"__N_SSG":true}