{"pageProps":{"categories":[{"id":"all","title":"All","count":1243},{"id":"with-pictures","title":"With pictures or videos","count":53},{"id":"office A","title":"office A","count":18},{"id":"miyata","title":"miyata","count":17},{"id":"office B","title":"office B","count":32},{"id":"recumbent","title":"recumbent","count":122},{"id":"tandem","title":"tandem","count":90},{"id":"wife","title":"wife","count":15},{"id":"son","title":"son","count":2},{"id":"grocery store","title":"grocery store","count":10},{"id":"just for fun","title":"just for fun","count":2},{"id":"Los Angeles","title":"Los Angeles","count":6},{"id":"school","title":"school","count":52},{"id":"horse camp","title":"horse camp","count":2},{"id":"yasha's heaven","title":"yasha's heaven","count":1},{"id":"seattle","title":"seattle","count":14},{"id":"walk","title":"walk","count":1},{"id":"office C","title":"office C","count":9},{"id":"with the kid","title":"with the kid","count":6},{"id":"ToTheEastCoast","title":"ToTheEastCoast","count":38}],"tracks":[[{"lng":-121.98562332647678,"lat":37.32439912927065,"tm":1655832027000,"pathType":"line"},{"lng":-121.99091281671618,"lat":37.32318654638893,"tm":1655832135000,"pathType":"line"},{"lng":-121.99344369132619,"lat":37.32320756673392,"tm":1655832243000,"pathType":"line"},{"lng":-122.0005566637477,"lat":37.32313148201625,"tm":1655832356000,"pathType":"line"},{"lng":-122.00635663571434,"lat":37.32323203013085,"tm":1655832465000,"pathType":"line"},{"lng":-122.01015862576106,"lat":37.32319717174051,"tm":1655832573000,"pathType":"line"},{"lng":-122.01400043776286,"lat":37.323103276009434,"tm":1655832681000,"pathType":"line"},{"lng":-122.0191658713034,"lat":37.32310876449045,"tm":1655832896000,"pathType":"line"},{"lng":-122.02301496654964,"lat":37.32305034887154,"tm":1655833003000,"pathType":"line"},{"lng":-122.02949903802983,"lat":37.323045446911244,"tm":1655833111000,"pathType":"line"},{"lng":-122.03206522086006,"lat":37.32299239854555,"tm":1655833220000,"pathType":"line"},{"lng":-122.03201324521986,"lat":37.323225429766445,"tm":1655833285000,"pathType":"line"},{"lng":-122.03673396410645,"lat":37.32302422834523,"tm":1655833394000,"pathType":"line"},{"lng":-122.0412978195137,"lat":37.32309629664024,"tm":1655833502000,"pathType":"line"},{"lng":-122.04582269597698,"lat":37.323030987500026,"tm":1655833610000,"pathType":"line"},{"lng":-122.04918778560707,"lat":37.323065359564346,"tm":1655833718000,"pathType":"line"},{"lng":-122.05190212987549,"lat":37.32292663991088,"tm":1655833825000,"pathType":"line"},{"lng":-122.0507088871937,"lat":37.320176648538535,"tm":1655833933000,"pathType":"line"},{"lng":-122.04988099450148,"lat":37.316926299458565,"tm":1655834000000,"pathType":"line"}],[{"lng":-122.04832675165906,"lat":37.31556377966738,"tm":1655848776000,"pathType":"line"},{"lng":-122.04008234504701,"lat":37.315557167665844,"tm":1655848887000,"pathType":"line"},{"lng":-122.03251718887861,"lat":37.31571365457005,"tm":1655848997000,"pathType":"line"},{"lng":-122.03186971555645,"lat":37.31892382322742,"tm":1655849220000,"pathType":"line"},{"lng":-122.03205280202472,"lat":37.32124802429986,"tm":1655849785000,"pathType":"line"},{"lng":-122.0256362729769,"lat":37.32269157523135,"tm":1655849893000,"pathType":"line"},{"lng":-122.01986749517161,"lat":37.322851851492594,"tm":1655850004000,"pathType":"line"},{"lng":-122.01443472197603,"lat":37.322912106431986,"tm":1655850113000,"pathType":"line"},{"lng":-122.01056212976555,"lat":37.322802554354716,"tm":1655850223000,"pathType":"line"},{"lng":-122.0055669209434,"lat":37.32286154207802,"tm":1655850332000,"pathType":"line"},{"lng":-121.99861016813266,"lat":37.32285883059703,"tm":1655850458000,"pathType":"line"},{"lng":-121.99301656393943,"lat":37.32305387016293,"tm":1655850572000,"pathType":"line"},{"lng":-121.99254732431,"lat":37.323051097836206,"tm":1655850682000,"pathType":"line"},{"lng":-121.98692640416084,"lat":37.32433000801887,"tm":1655850794000,"pathType":"line"}]],"objects":[],"title":"Daily ride 2022-06-21","description":"","trackId":"20220621","distance":12.9,"time":"1:7","uphill":61},"__N_SSG":true}