{"pageProps":{"categories":[{"id":"all","title":"All","count":1243},{"id":"with-pictures","title":"With pictures or videos","count":53},{"id":"office A","title":"office A","count":18},{"id":"miyata","title":"miyata","count":17},{"id":"office B","title":"office B","count":32},{"id":"recumbent","title":"recumbent","count":122},{"id":"tandem","title":"tandem","count":90},{"id":"wife","title":"wife","count":15},{"id":"son","title":"son","count":2},{"id":"grocery store","title":"grocery store","count":10},{"id":"just for fun","title":"just for fun","count":2},{"id":"Los Angeles","title":"Los Angeles","count":6},{"id":"school","title":"school","count":52},{"id":"horse camp","title":"horse camp","count":2},{"id":"yasha's heaven","title":"yasha's heaven","count":1},{"id":"seattle","title":"seattle","count":14},{"id":"walk","title":"walk","count":1},{"id":"office C","title":"office C","count":9},{"id":"with the kid","title":"with the kid","count":6},{"id":"ToTheEastCoast","title":"ToTheEastCoast","count":38}],"tracks":[[{"lng":-121.97461463277043,"lat":37.32823933097478,"tm":1655512136000,"pathType":"line"},{"lng":-121.96793928399052,"lat":37.329853831813345,"tm":1655512244000,"pathType":"line"},{"lng":-121.96431472643599,"lat":37.323441964982514,"tm":1655512353000,"pathType":"line"},{"lng":-121.96420462112478,"lat":37.316536460825795,"tm":1655512461000,"pathType":"line"},{"lng":-121.96361750908588,"lat":37.31390037400329,"tm":1655512570000,"pathType":"line"},{"lng":-121.96346406047579,"lat":37.3088497252684,"tm":1655512679000,"pathType":"line"},{"lng":-121.96379636619744,"lat":37.30876505686733,"tm":1655512786000,"pathType":"line"},{"lng":-121.96353866715718,"lat":37.308544170701914,"tm":1655512893000,"pathType":"line"},{"lng":-121.95900506547082,"lat":37.30445858542153,"tm":1655513002000,"pathType":"line"},{"lng":-121.95937037123257,"lat":37.30461763109975,"tm":1655513432000,"pathType":"line"},{"lng":-121.96071772785916,"lat":37.30472904882745,"tm":1655513542000,"pathType":"line"},{"lng":-121.96003755679011,"lat":37.304214116957866,"tm":1655513663000,"pathType":"line"},{"lng":-121.95936459590584,"lat":37.30433379979746,"tm":1655514197000,"pathType":"line"},{"lng":-121.96005922096849,"lat":37.30412887245991,"tm":1655514305000,"pathType":"line"},{"lng":-121.96010769544522,"lat":37.304517948630476,"tm":1655514521000,"pathType":"line"},{"lng":-121.96107034529604,"lat":37.304888542521134,"tm":1655514630000,"pathType":"line"},{"lng":-121.96094320110848,"lat":37.30876558657908,"tm":1655514739000,"pathType":"line"},{"lng":-121.96286941603451,"lat":37.31121242488538,"tm":1655514848000,"pathType":"line"},{"lng":-121.96297623722737,"lat":37.31298117214356,"tm":1655514957000,"pathType":"line"},{"lng":-121.96381191837243,"lat":37.31585843994897,"tm":1655515065000,"pathType":"line"},{"lng":-121.96375963115453,"lat":37.32115092183705,"tm":1655515189000,"pathType":"line"},{"lng":-121.96407152299463,"lat":37.32522048019024,"tm":1655515298000,"pathType":"line"},{"lng":-121.96691823683352,"lat":37.3283287201261,"tm":1655515407000,"pathType":"line"},{"lng":-121.96875621026471,"lat":37.330005538118705,"tm":1655515515000,"pathType":"line"},{"lng":-121.97466167336663,"lat":37.33016341745426,"tm":1655515624000,"pathType":"line"},{"lng":-121.97886412779386,"lat":37.329963327959476,"tm":1655515733000,"pathType":"line"}]],"objects":[],"title":"Daily ride 2022-06-17","description":"","trackId":"20220617","distance":8.1,"time":"0:0","uphill":0},"__N_SSG":true}