{"pageProps":{"categories":[{"id":"all","title":"All","count":1243},{"id":"with-pictures","title":"With pictures or videos","count":53},{"id":"office A","title":"office A","count":18},{"id":"miyata","title":"miyata","count":17},{"id":"office B","title":"office B","count":32},{"id":"recumbent","title":"recumbent","count":122},{"id":"tandem","title":"tandem","count":90},{"id":"wife","title":"wife","count":15},{"id":"son","title":"son","count":2},{"id":"grocery store","title":"grocery store","count":10},{"id":"just for fun","title":"just for fun","count":2},{"id":"Los Angeles","title":"Los Angeles","count":6},{"id":"school","title":"school","count":52},{"id":"horse camp","title":"horse camp","count":2},{"id":"yasha's heaven","title":"yasha's heaven","count":1},{"id":"seattle","title":"seattle","count":14},{"id":"walk","title":"walk","count":1},{"id":"office C","title":"office C","count":9},{"id":"with the kid","title":"with the kid","count":6},{"id":"ToTheEastCoast","title":"ToTheEastCoast","count":38}],"tracks":[[{"lng":-121.98573124006224,"lat":37.324362767987424,"tm":1657044008000,"pathType":"line"},{"lng":-121.99048573877553,"lat":37.324046705391055,"tm":1657044117000,"pathType":"line"},{"lng":-121.99217448452671,"lat":37.323230612498705,"tm":1657044183000,"pathType":"line"},{"lng":-121.99757188511427,"lat":37.32319648361121,"tm":1657044292000,"pathType":"line"},{"lng":-122.00216455195965,"lat":37.32325453689406,"tm":1657044400000,"pathType":"line"},{"lng":-122.00631587439828,"lat":37.32312371406231,"tm":1657044495000,"pathType":"line"},{"lng":-122.01013974252002,"lat":37.323171238391275,"tm":1657044602000,"pathType":"line"},{"lng":-122.01398396940317,"lat":37.32308714693466,"tm":1657044711000,"pathType":"line"},{"lng":-122.01919805529299,"lat":37.32296948698859,"tm":1657044820000,"pathType":"line"},{"lng":-122.02294816989786,"lat":37.32306881979506,"tm":1657044891000,"pathType":"line"},{"lng":-122.02740868057226,"lat":37.32310750471071,"tm":1657044999000,"pathType":"line"},{"lng":-122.0324003350881,"lat":37.32303121037293,"tm":1657045108000,"pathType":"line"},{"lng":-122.0352806721273,"lat":37.32302841909958,"tm":1657045217000,"pathType":"line"},{"lng":-122.03957300128177,"lat":37.323083239924,"tm":1657045289000,"pathType":"line"},{"lng":-122.04355994520746,"lat":37.323026154602516,"tm":1657045398000,"pathType":"line"},{"lng":-122.05036801857126,"lat":37.322999013795666,"tm":1657045506000,"pathType":"line"},{"lng":-122.05037245118586,"lat":37.319501055344396,"tm":1657045615000,"pathType":"line"},{"lng":-122.05086449047825,"lat":37.316730040932306,"tm":1657045707000,"pathType":"line"},{"lng":-122.0518458312829,"lat":37.31747770751708,"tm":1657045927000,"pathType":"line"},{"lng":-122.05212158352205,"lat":37.31750438966352,"tm":1657046114000,"pathType":"line"},{"lng":-122.05196907671518,"lat":37.31723849646225,"tm":1657046332000,"pathType":"line"},{"lng":-122.05221570391627,"lat":37.317280808439726,"tm":1657046768000,"pathType":"line"}],[{"lng":-122.05182822621923,"lat":37.31697230864733,"tm":1657068256000,"pathType":"line"},{"lng":-122.05176749815016,"lat":37.317229654689484,"tm":1657068410000,"pathType":"line"},{"lng":-122.04969992522162,"lat":37.31832760264901,"tm":1657068519000,"pathType":"line"},{"lng":-122.05168895625701,"lat":37.322733433198415,"tm":1657068627000,"pathType":"line"},{"lng":-122.04543116729018,"lat":37.32275979316932,"tm":1657068736000,"pathType":"line"},{"lng":-122.03971607997283,"lat":37.32274108878041,"tm":1657068845000,"pathType":"line"},{"lng":-122.03427326424591,"lat":37.322751183257886,"tm":1657068954000,"pathType":"line"},{"lng":-122.03170072520172,"lat":37.32275910680196,"tm":1657069062000,"pathType":"line"},{"lng":-122.02431159569088,"lat":37.322786540303426,"tm":1657069171000,"pathType":"line"},{"lng":-122.01979940590722,"lat":37.3228123043129,"tm":1657069280000,"pathType":"line"},{"lng":-122.01531197397864,"lat":37.32285242301362,"tm":1657069387000,"pathType":"line"},{"lng":-122.01069321051602,"lat":37.32285014132265,"tm":1657069496000,"pathType":"line"},{"lng":-122.00368854529582,"lat":37.32286345219154,"tm":1657069605000,"pathType":"line"},{"lng":-122.00313914610855,"lat":37.32295972059504,"tm":1657069712000,"pathType":"line"},{"lng":-122.0008400308169,"lat":37.32288975981591,"tm":1657069820000,"pathType":"line"},{"lng":-121.99541246219988,"lat":37.322909481744624,"tm":1657069929000,"pathType":"line"},{"lng":-121.99195038363673,"lat":37.32323606012106,"tm":1657070037000,"pathType":"line"},{"lng":-121.98794018166583,"lat":37.324213962439316,"tm":1657070146000,"pathType":"line"},{"lng":-121.98279000773627,"lat":37.32433138148648,"tm":1657070255000,"pathType":"line"}]],"objects":[],"title":"Daily ride 2022-07-05","description":"","trackId":"20220705","distance":13.6,"time":"1:19","uphill":58},"__N_SSG":true}