{"pageProps":{"categories":[{"id":"all","title":"All","count":1243},{"id":"with-pictures","title":"With pictures or videos","count":53},{"id":"office A","title":"office A","count":18},{"id":"miyata","title":"miyata","count":17},{"id":"office B","title":"office B","count":32},{"id":"recumbent","title":"recumbent","count":122},{"id":"tandem","title":"tandem","count":90},{"id":"wife","title":"wife","count":15},{"id":"son","title":"son","count":2},{"id":"grocery store","title":"grocery store","count":10},{"id":"just for fun","title":"just for fun","count":2},{"id":"Los Angeles","title":"Los Angeles","count":6},{"id":"school","title":"school","count":52},{"id":"horse camp","title":"horse camp","count":2},{"id":"yasha's heaven","title":"yasha's heaven","count":1},{"id":"seattle","title":"seattle","count":14},{"id":"walk","title":"walk","count":1},{"id":"office C","title":"office C","count":9},{"id":"with the kid","title":"with the kid","count":6},{"id":"ToTheEastCoast","title":"ToTheEastCoast","count":38}],"tracks":[[{"lng":-121.9791101,"lat":37.3267584,"tm":1643074660000,"pathType":"line"},{"lng":-121.97482199,"lat":37.32665985,"tm":1643074724000,"pathType":"line"},{"lng":-121.97418779,"lat":37.3299449,"tm":1643074788000,"pathType":"line"},{"lng":-121.96912679,"lat":37.32990048,"tm":1643074851000,"pathType":"line"},{"lng":-121.96634253,"lat":37.32729917,"tm":1643074917000,"pathType":"line"},{"lng":-121.96418314,"lat":37.32381151,"tm":1643074984000,"pathType":"line"},{"lng":-121.96427222,"lat":37.32337,"tm":1643075047000,"pathType":"line"},{"lng":-121.96406895,"lat":37.32081882,"tm":1643075112000,"pathType":"line"},{"lng":-121.96414557,"lat":37.31706188,"tm":1643075175000,"pathType":"line"},{"lng":-121.96308488,"lat":37.31281126,"tm":1643075239000,"pathType":"line"},{"lng":-121.96343862,"lat":37.30942417,"tm":1643075303000,"pathType":"line"},{"lng":-121.96344137,"lat":37.30891336,"tm":1643075367000,"pathType":"line"},{"lng":-121.96274068,"lat":37.30865476,"tm":1643075493000,"pathType":"line"},{"lng":-121.96079671,"lat":37.30665452,"tm":1643075557000,"pathType":"line"},{"lng":-121.95939677,"lat":37.30473572,"tm":1643075622000,"pathType":"line"},{"lng":-121.95912768,"lat":37.30427431,"tm":1643075691000,"pathType":"line"},{"lng":-121.95893275,"lat":37.3044229,"tm":1643075945000,"pathType":"line"},{"lng":-121.96042885,"lat":37.30482636,"tm":1643076187000,"pathType":"line"},{"lng":-121.96090451,"lat":37.3069472,"tm":1643076247000,"pathType":"line"},{"lng":-121.96198591,"lat":37.30888832,"tm":1643076308000,"pathType":"line"},{"lng":-121.96284701,"lat":37.31082966,"tm":1643076369000,"pathType":"line"},{"lng":-121.9632317,"lat":37.31429855,"tm":1643076434000,"pathType":"line"},{"lng":-121.96385249,"lat":37.31807324,"tm":1643076498000,"pathType":"line"},{"lng":-121.96380223,"lat":37.32138555,"tm":1643076558000,"pathType":"line"},{"lng":-121.9639978,"lat":37.32468974,"tm":1643076618000,"pathType":"line"},{"lng":-121.96586683,"lat":37.32731935,"tm":1643076679000,"pathType":"line"},{"lng":-121.96603685,"lat":37.32748523,"tm":1643076739000,"pathType":"line"},{"lng":-121.9674823,"lat":37.32987206,"tm":1643076800000,"pathType":"line"},{"lng":-121.97064986,"lat":37.33001774,"tm":1643076921000,"pathType":"line"},{"lng":-121.97415075,"lat":37.33009186,"tm":1643076982000,"pathType":"line"},{"lng":-121.97509943,"lat":37.33004157,"tm":1643077043000,"pathType":"line"},{"lng":-121.97824754,"lat":37.3300331,"tm":1643077104000,"pathType":"line"},{"lng":-121.97910978,"lat":37.3280412,"tm":1643077165000,"pathType":"line"}]],"objects":[],"title":"Daily ride 2022-01-24","description":"","trackId":"20220124","distance":8.6,"time":"0:42","uphill":0},"__N_SSG":true}