{"pageProps":{"categories":[{"id":"all","title":"All","count":1243},{"id":"with-pictures","title":"With pictures or videos","count":53},{"id":"office A","title":"office A","count":18},{"id":"miyata","title":"miyata","count":17},{"id":"office B","title":"office B","count":32},{"id":"recumbent","title":"recumbent","count":122},{"id":"tandem","title":"tandem","count":90},{"id":"wife","title":"wife","count":15},{"id":"son","title":"son","count":2},{"id":"grocery store","title":"grocery store","count":10},{"id":"just for fun","title":"just for fun","count":2},{"id":"Los Angeles","title":"Los Angeles","count":6},{"id":"school","title":"school","count":52},{"id":"horse camp","title":"horse camp","count":2},{"id":"yasha's heaven","title":"yasha's heaven","count":1},{"id":"seattle","title":"seattle","count":14},{"id":"walk","title":"walk","count":1},{"id":"office C","title":"office C","count":9},{"id":"with the kid","title":"with the kid","count":6},{"id":"ToTheEastCoast","title":"ToTheEastCoast","count":38}],"tracks":[[{"lng":-121.98366998238919,"lat":37.32440657070568,"tm":1676734308000,"pathType":"line"},{"lng":-121.98673628818345,"lat":37.32436524257104,"tm":1676734373000,"pathType":"line"},{"lng":-121.98992683390321,"lat":37.32405466915684,"tm":1676734438000,"pathType":"line"},{"lng":-121.99186230306317,"lat":37.323195322390575,"tm":1676734501000,"pathType":"line"},{"lng":-121.99521853380202,"lat":37.32314565367554,"tm":1676734567000,"pathType":"line"},{"lng":-122.00099340020711,"lat":37.32319704382772,"tm":1676734696000,"pathType":"line"},{"lng":-122.0014931877462,"lat":37.323150438295976,"tm":1676734760000,"pathType":"line"},{"lng":-122.00680753943632,"lat":37.32324921383747,"tm":1676734825000,"pathType":"line"},{"lng":-122.01031676581123,"lat":37.32312615984418,"tm":1676734890000,"pathType":"line"},{"lng":-122.01371715602285,"lat":37.322982950552095,"tm":1676734954000,"pathType":"line"},{"lng":-122.01405649822438,"lat":37.323093163852704,"tm":1676735017000,"pathType":"line"},{"lng":-122.01820667452775,"lat":37.323108668533116,"tm":1676735085000,"pathType":"line"},{"lng":-122.02176491744831,"lat":37.32316929787165,"tm":1676735150000,"pathType":"line"},{"lng":-122.0252827104304,"lat":37.32307705054787,"tm":1676735216000,"pathType":"line"},{"lng":-122.02744867397952,"lat":37.32282899130637,"tm":1676735281000,"pathType":"line"},{"lng":-122.0275974875188,"lat":37.32302201570736,"tm":1676735344000,"pathType":"line"},{"lng":-122.0292830179664,"lat":37.320452650893486,"tm":1676735411000,"pathType":"line"},{"lng":-122.02929538442746,"lat":37.3179687304298,"tm":1676735476000,"pathType":"line"},{"lng":-122.03023053553304,"lat":37.316308003552834,"tm":1676735544000,"pathType":"line"},{"lng":-122.03046480092164,"lat":37.31660573330608,"tm":1676735936000,"pathType":"line"},{"lng":-122.03015944629279,"lat":37.31632995924464,"tm":1676736002000,"pathType":"line"},{"lng":-122.03030680125467,"lat":37.31646645713167,"tm":1676736140000,"pathType":"line"}],[{"lng":-122.02993720222656,"lat":37.31635862337487,"tm":1676738030000,"pathType":"line"},{"lng":-122.03016728749236,"lat":37.316612784501345,"tm":1676738093000,"pathType":"line"},{"lng":-122.0275783771812,"lat":37.32242039131188,"tm":1676738156000,"pathType":"line"},{"lng":-122.02346720193151,"lat":37.322815781242085,"tm":1676738220000,"pathType":"line"},{"lng":-122.01979487433982,"lat":37.32288276702681,"tm":1676738284000,"pathType":"line"},{"lng":-122.01576315512467,"lat":37.32280574557494,"tm":1676738347000,"pathType":"line"},{"lng":-122.01301082118508,"lat":37.32266740776214,"tm":1676738410000,"pathType":"line"},{"lng":-122.0087079831118,"lat":37.32278746925649,"tm":1676738474000,"pathType":"line"},{"lng":-122.00422637322514,"lat":37.32288553828517,"tm":1676738538000,"pathType":"line"},{"lng":-122.00084892666442,"lat":37.32288356906245,"tm":1676738601000,"pathType":"line"},{"lng":-121.99605878132732,"lat":37.322870954809126,"tm":1676738667000,"pathType":"line"},{"lng":-121.99538256768551,"lat":37.32266427513629,"tm":1676738729000,"pathType":"line"},{"lng":-121.9903900088644,"lat":37.323565348321154,"tm":1676738793000,"pathType":"line"},{"lng":-121.98722806451808,"lat":37.32425843621245,"tm":1676738856000,"pathType":"line"},{"lng":-121.98306379605233,"lat":37.324321230505795,"tm":1676738920000,"pathType":"line"}]],"objects":[],"title":"Daily ride 2023-02-18","description":"","trackId":"20230218","distance":9.6,"time":"0:45","uphill":47},"__N_SSG":true}