{"pageProps":{"categories":[{"id":"all","title":"All","count":1243},{"id":"with-pictures","title":"With pictures or videos","count":53},{"id":"office A","title":"office A","count":18},{"id":"miyata","title":"miyata","count":17},{"id":"office B","title":"office B","count":32},{"id":"recumbent","title":"recumbent","count":122},{"id":"tandem","title":"tandem","count":90},{"id":"wife","title":"wife","count":15},{"id":"son","title":"son","count":2},{"id":"grocery store","title":"grocery store","count":10},{"id":"just for fun","title":"just for fun","count":2},{"id":"Los Angeles","title":"Los Angeles","count":6},{"id":"school","title":"school","count":52},{"id":"horse camp","title":"horse camp","count":2},{"id":"yasha's heaven","title":"yasha's heaven","count":1},{"id":"seattle","title":"seattle","count":14},{"id":"walk","title":"walk","count":1},{"id":"office C","title":"office C","count":9},{"id":"with the kid","title":"with the kid","count":6},{"id":"ToTheEastCoast","title":"ToTheEastCoast","count":38}],"tracks":[[{"lng":-121.99441439022291,"lat":37.33100494749616,"tm":1735440850000,"pathType":"line"},{"lng":-121.99474583450866,"lat":37.33099585982213,"tm":1735440962000,"pathType":"line"},{"lng":-121.99479534152053,"lat":37.331536595606615,"tm":1735441445000,"pathType":"line"},{"lng":-121.99798970909508,"lat":37.331413254612784,"tm":1735441508000,"pathType":"line"},{"lng":-122.00121222328161,"lat":37.33223965580249,"tm":1735441569000,"pathType":"line"},{"lng":-122.00510472712017,"lat":37.33237812887113,"tm":1735441632000,"pathType":"line"},{"lng":-122.00599092843817,"lat":37.33004810653754,"tm":1735441695000,"pathType":"line"},{"lng":-122.00602490759786,"lat":37.32712549039432,"tm":1735441759000,"pathType":"line"},{"lng":-122.00657945845673,"lat":37.32444955235573,"tm":1735441824000,"pathType":"line"},{"lng":-122.00856346918773,"lat":37.32311342287156,"tm":1735441888000,"pathType":"line"},{"lng":-122.01239207277054,"lat":37.323070721398814,"tm":1735441952000,"pathType":"line"},{"lng":-122.01407507153021,"lat":37.323103492586924,"tm":1735442015000,"pathType":"line"},{"lng":-122.01705906946718,"lat":37.323070971815504,"tm":1735442142000,"pathType":"line"},{"lng":-122.01993116519219,"lat":37.32306316738127,"tm":1735442207000,"pathType":"line"},{"lng":-122.01985561386863,"lat":37.32323727686907,"tm":1735442276000,"pathType":"line"}],[{"lng":-122.01862159985411,"lat":37.32282750985638,"tm":1735443274000,"pathType":"line"},{"lng":-122.01661224980549,"lat":37.32287440576522,"tm":1735443338000,"pathType":"line"},{"lng":-122.0134604461157,"lat":37.322801714457846,"tm":1735443402000,"pathType":"line"},{"lng":-122.01058525563064,"lat":37.322919235552355,"tm":1735443465000,"pathType":"line"},{"lng":-122.00734687041411,"lat":37.32296921666289,"tm":1735443530000,"pathType":"line"},{"lng":-122.00374222124472,"lat":37.3228939404448,"tm":1735443595000,"pathType":"line"},{"lng":-122.00117163137169,"lat":37.32285335140213,"tm":1735443660000,"pathType":"line"},{"lng":-121.99735624225599,"lat":37.32297320832062,"tm":1735443725000,"pathType":"line"},{"lng":-121.99537172781092,"lat":37.323108325804405,"tm":1735443789000,"pathType":"line"},{"lng":-121.99330739391557,"lat":37.32295348312044,"tm":1735443853000,"pathType":"line"},{"lng":-121.99053134847821,"lat":37.32386237944992,"tm":1735443917000,"pathType":"line"},{"lng":-121.98735327904714,"lat":37.324332994759004,"tm":1735443981000,"pathType":"line"},{"lng":-121.9843515006274,"lat":37.32432788562651,"tm":1735444045000,"pathType":"line"},{"lng":-121.9813818330721,"lat":37.32435407228974,"tm":1735444109000,"pathType":"line"}],[{"lng":-121.98212247027861,"lat":37.32438381100674,"tm":1735448319000,"pathType":"line"},{"lng":-121.98492254438949,"lat":37.32441544927174,"tm":1735448383000,"pathType":"line"},{"lng":-121.98667205613863,"lat":37.32519913462501,"tm":1735448447000,"pathType":"line"},{"lng":-121.98676378551949,"lat":37.3280086878837,"tm":1735448510000,"pathType":"line"},{"lng":-121.98635180306457,"lat":37.33052128130667,"tm":1735448571000,"pathType":"line"},{"lng":-121.98924646965246,"lat":37.3315652341328,"tm":1735448632000,"pathType":"line"},{"lng":-121.99177420911393,"lat":37.331628984636005,"tm":1735448693000,"pathType":"line"},{"lng":-121.99458732637787,"lat":37.33110938131416,"tm":1735448759000,"pathType":"line"}]],"objects":[],"title":"Daily ride 2024-12-28","description":"","trackId":"20241228","distance":8.5,"time":"0:45","uphill":8},"__N_SSG":true}