{"pageProps":{"categories":[{"id":"all","title":"All","count":1243},{"id":"with-pictures","title":"With pictures or videos","count":53},{"id":"office A","title":"office A","count":18},{"id":"miyata","title":"miyata","count":17},{"id":"office B","title":"office B","count":32},{"id":"recumbent","title":"recumbent","count":122},{"id":"tandem","title":"tandem","count":90},{"id":"wife","title":"wife","count":15},{"id":"son","title":"son","count":2},{"id":"grocery store","title":"grocery store","count":10},{"id":"just for fun","title":"just for fun","count":2},{"id":"Los Angeles","title":"Los Angeles","count":6},{"id":"school","title":"school","count":52},{"id":"horse camp","title":"horse camp","count":2},{"id":"yasha's heaven","title":"yasha's heaven","count":1},{"id":"seattle","title":"seattle","count":14},{"id":"walk","title":"walk","count":1},{"id":"office C","title":"office C","count":9},{"id":"with the kid","title":"with the kid","count":6},{"id":"ToTheEastCoast","title":"ToTheEastCoast","count":38}],"tracks":[[{"lng":-121.99479596464998,"lat":37.331093770761065,"tm":1735618688000,"pathType":"line"},{"lng":-121.99200210778216,"lat":37.33154604700313,"tm":1735618751000,"pathType":"line"},{"lng":-121.98876029943919,"lat":37.33116172682089,"tm":1735618812000,"pathType":"line"},{"lng":-121.98624477448499,"lat":37.32993653729494,"tm":1735618873000,"pathType":"line"},{"lng":-121.9867952899234,"lat":37.3274598182654,"tm":1735618934000,"pathType":"line"},{"lng":-121.98683866175887,"lat":37.324908701262146,"tm":1735618995000,"pathType":"line"},{"lng":-121.9844722381268,"lat":37.32433836720726,"tm":1735619056000,"pathType":"line"}],[{"lng":-121.98339379393839,"lat":37.32437075212207,"tm":1735625652000,"pathType":"line"},{"lng":-121.98626228778532,"lat":37.32439505052917,"tm":1735625715000,"pathType":"line"},{"lng":-121.98668186203714,"lat":37.32667273223027,"tm":1735625778000,"pathType":"line"},{"lng":-121.98615820978517,"lat":37.32949240001203,"tm":1735625839000,"pathType":"line"},{"lng":-121.98826747620012,"lat":37.331032616302195,"tm":1735625900000,"pathType":"line"},{"lng":-121.99129681698103,"lat":37.33166470480983,"tm":1735625961000,"pathType":"line"},{"lng":-121.99430567070274,"lat":37.33114746757364,"tm":1735626025000,"pathType":"line"},{"lng":-121.99462473885755,"lat":37.330882642460956,"tm":1735626106000,"pathType":"line"}]],"objects":[],"title":"Daily ride 2024-12-30","description":"","trackId":"20241230","distance":3.4,"time":"0:14","uphill":0},"__N_SSG":true}