{"pageProps":{"categories":[{"id":"all","title":"All","count":1243},{"id":"with-pictures","title":"With pictures or videos","count":53},{"id":"office A","title":"office A","count":18},{"id":"miyata","title":"miyata","count":17},{"id":"office B","title":"office B","count":32},{"id":"recumbent","title":"recumbent","count":122},{"id":"tandem","title":"tandem","count":90},{"id":"wife","title":"wife","count":15},{"id":"son","title":"son","count":2},{"id":"grocery store","title":"grocery store","count":10},{"id":"just for fun","title":"just for fun","count":2},{"id":"Los Angeles","title":"Los Angeles","count":6},{"id":"school","title":"school","count":52},{"id":"horse camp","title":"horse camp","count":2},{"id":"yasha's heaven","title":"yasha's heaven","count":1},{"id":"seattle","title":"seattle","count":14},{"id":"walk","title":"walk","count":1},{"id":"office C","title":"office C","count":9},{"id":"with the kid","title":"with the kid","count":6},{"id":"ToTheEastCoast","title":"ToTheEastCoast","count":38}],"tracks":[[{"lng":-121.99493023045952,"lat":37.33119025101504,"tm":1721603038000,"pathType":"line"},{"lng":-121.99167405523198,"lat":37.331604294581446,"tm":1721603101000,"pathType":"line"},{"lng":-121.98794620013639,"lat":37.330900650758544,"tm":1721603165000,"pathType":"line"},{"lng":-121.98620165152828,"lat":37.32914097590676,"tm":1721603228000,"pathType":"line"},{"lng":-121.98675490789391,"lat":37.32613690910639,"tm":1721603291000,"pathType":"line"},{"lng":-121.98506817293277,"lat":37.324332544449014,"tm":1721603355000,"pathType":"line"}],[{"lng":-121.98244046418516,"lat":37.324340831536496,"tm":1721611594000,"pathType":"line"},{"lng":-121.98555111831163,"lat":37.324316753203746,"tm":1721611657000,"pathType":"line"},{"lng":-121.98664717394567,"lat":37.32626357464384,"tm":1721611721000,"pathType":"line"},{"lng":-121.98619568202267,"lat":37.32903290543189,"tm":1721611784000,"pathType":"line"},{"lng":-121.98610714479118,"lat":37.33050182946374,"tm":1721611847000,"pathType":"line"},{"lng":-121.98942799196134,"lat":37.33166340677667,"tm":1721611911000,"pathType":"line"},{"lng":-121.99269331041681,"lat":37.33155813317121,"tm":1721611974000,"pathType":"line"},{"lng":-121.99483639584554,"lat":37.33102840826118,"tm":1721612037000,"pathType":"line"},{"lng":-121.99466054502096,"lat":37.3312671753293,"tm":1721612099000,"pathType":"line"},{"lng":-121.99465357624919,"lat":37.33107092654348,"tm":1721612286000,"pathType":"line"}]],"objects":[],"title":"Daily ride 2024-07-21","description":"","trackId":"20240721","distance":3.6,"time":"0:17","uphill":0},"__N_SSG":true}