{"pageProps":{"siteDescription":"Description of local dev version","siteTitle":"Local dev version","currentPage":"4","categories":[{"id":"all","title":"All","count":1243},{"id":"with-pictures","title":"With pictures or videos","count":53},{"id":"office A","title":"office A","count":18},{"id":"miyata","title":"miyata","count":17},{"id":"office B","title":"office B","count":32},{"id":"recumbent","title":"recumbent","count":122},{"id":"tandem","title":"tandem","count":90},{"id":"wife","title":"wife","count":15},{"id":"son","title":"son","count":2},{"id":"grocery store","title":"grocery store","count":10},{"id":"just for fun","title":"just for fun","count":2},{"id":"Los Angeles","title":"Los Angeles","count":6},{"id":"school","title":"school","count":52},{"id":"horse camp","title":"horse camp","count":2},{"id":"yasha's heaven","title":"yasha's heaven","count":1},{"id":"seattle","title":"seattle","count":14},{"id":"walk","title":"walk","count":1},{"id":"office C","title":"office C","count":9},{"id":"with the kid","title":"with the kid","count":6},{"id":"ToTheEastCoast","title":"ToTheEastCoast","count":38}],"pages":19,"category":"ToTheEastCoast","index":[{"title":"Daily ride 2022-06-04 #561","description":"Day 33. Canada. Motel.","tags":["recumbent","ToTheEastCoast"],"gpx":["track.gpx"],"date":"2022-06-04","hash":["54da699aa61a1dafbadd6833193d6da74795b9f4218c87a36c0a09c77098b56b"],"id":"20220604","objects":[{"type":"image","img":"20220604-photo0","timestamp":1654338645000,"lat":43.67322222222222,"lng":-79.39940277777778},{"type":"image","img":"20220604-photo1","timestamp":1654346539000,"lat":43.64782777777778,"lng":-79.39020833333333},{"type":"image","img":"20220604-photo2","timestamp":1654346554000,"lat":43.648649999999996,"lng":-79.38669166666668},{"type":"image","img":"20220604-photo3","timestamp":1654352091000,"lat":43.70850555555556,"lng":-79.23967222222223},{"type":"image","img":"20220604-photo4","timestamp":1654352861000,"lat":43.72123055555556,"lng":-79.23668611111111},{"type":"image","img":"20220604-photo5","timestamp":1654358789000,"lat":43.77551944444444,"lng":-79.13419444444445},{"type":"image","img":"20220604-photo6","timestamp":1654359126000,"lat":43.783905555555556,"lng":-79.125975},{"type":"image","img":"20220604-photo7","timestamp":1654359739000,"lat":43.79461111111111,"lng":-79.117725},{"type":"image","img":"20220604-photo8","timestamp":1654360750000,"lat":43.815580555555556,"lng":-79.09750277777778},{"type":"image","img":"20220604-photo9","timestamp":1654360763000,"lat":43.81557222222222,"lng":-79.09750555555556},{"type":"image","img":"20220604-photo10","timestamp":1654363598000,"lat":43.84411388888889,"lng":-79.01738611111111}],"time":44593000,"distance":143865.21368704876,"uphill":461,"pointCount":430,"categories":["all","recumbent","ToTheEastCoast","with-pictures"]},{"title":"Daily ride 2022-06-02 #560","description":"Day 31. Canada. Tent. I arrived in Toronto for drinking beers.","tags":["recumbent","ToTheEastCoast"],"gpx":["track.gpx"],"date":"2022-06-02","hash":["62402d1438bde652fda107ce453c15658d8833b67f7d5a3064b4adb903331308"],"id":"20220602","objects":[{"type":"image","img":"20220602-photo0","timestamp":1654149844000,"lat":43.15047222222222,"lng":-80.18070555555556},{"type":"image","img":"20220602-photo1","timestamp":1654162167000,"lat":43.25358888888889,"lng":-79.87028333333333},{"type":"image","img":"20220602-photo2","timestamp":1654162209000,"lat":43.25358888888889,"lng":-79.87028333333333},{"type":"image","img":"20220602-photo3","timestamp":1654164719000,"lat":43.27921111111111,"lng":-79.89072222222222},{"type":"image","img":"20220602-photo4","timestamp":1654167532000,"lat":43.31980277777778,"lng":-79.79981666666666},{"type":"image","img":"20220602-photo5","timestamp":1654167540000,"lat":43.31980277777778,"lng":-79.79981666666666},{"type":"image","img":"20220602-photo6","timestamp":1654188495000,"lat":43.75025,"lng":-79.48752777777779},{"type":"image","img":"20220602-photo7","timestamp":1654189264000,"lat":43.76635,"lng":-79.49451666666667}],"time":35461000,"distance":112585.19053275339,"uphill":203,"pointCount":341,"categories":["all","recumbent","ToTheEastCoast","with-pictures"]}]},"__N_SSG":true}